road_id,osm_id,highway_class,name,maxspeed,maxspeed_effective,oneway,oneway_effective,sidewalk,lit,geometry_wkt,lon,lat
road_00001,25305566,residential,הרצל,0,,B,B,,,"LINESTRING (191654.038516 675221.158758, 191657.685588 675233.790528, 191662.646804 675250.998567, 191685.691078 675330.955614, 191694.45155 675361.327321, 191711.220284 675419.533374)",34.910006499509386,32.171112100633465
road_00002,25305567,tertiary,דב הוז,0,,F,F,,,"LINESTRING (190486.413284 676407.106992, 190495.35156 676399.696008, 190500.752243 676395.244878, 190506.818568 676392.710299, 190532.313648 676383.877053)",34.89747569951052,32.180657000631705
road_00003,31095127,service,,0,,B,B,,,"LINESTRING (189744.070341 676354.860542, 189742.003407 676360.700827)",34.88936710187123,32.18034841200349
road_00004,31095129,service,,0,,B,B,,,"LINESTRING (189810.231721 676391.283895, 189787.63601 676410.96691, 189761.625475 676391.669987, 189748.981195 676397.072209)",34.88984939951079,32.180802900631235
road_00005,32901956,primary_link,,0,,F,F,,,"LINESTRING (189957.151414 675844.208956, 189952.174894 675842.105368, 189946.40681 675840.236959, 189940.169086 675839.035276, 189934.357905 675838.564249, 189929.651265 675838.455959, 189921.070146 675838.991036, 189918.039028 675839.475802)",34.891484399510375,32.17564940063186
road_00006,32901957,primary_link,,0,,F,F,,,"LINESTRING (189949.776397 675798.576839, 189949.662796 675802.035979, 189950.004149 675805.905148, 189950.769176 675809.518032, 189952.709408 675815.090304, 189954.523613 675819.487479, 189957.303305 675825.07949)",34.891618099510346,32.1754338006319
road_00007,32902530,tertiary,"ד""ר משה סנה",0,,F,F,,,"LINESTRING (190425.924373 677086.543783, 190427.642098 677093.624933, 190428.666309 677095.629167, 190432.10504 677101.053087, 190546.514326 677223.662424, 190556.928787 677234.821858, 190568.095583 677245.258355, 190577.83982 677252.882231, 190589.384624 677260.301384, 190607.030434 677270.930185, 190623.239964 677280.553972, 190631.952182 677286.750312, 190639.666628 677293.592674, 190643.886584 677298.559785, 190650.036694 677305.783634, 190655.689851 677317.333727)",34.89787149951105,32.18815130063094
road_00008,33848555,residential,זמיר,0,,F,F,,,"LINESTRING (193382.907003 676858.756805, 193385.006742 676846.475588, 193384.412559 676776.725613, 193384.360589 676771.181112, 193386.407324 676745.604001, 193390.343836 676714.100367, 193393.817614 676689.683966, 193394.61361 676680.156242)",34.92797699950974,32.184140300633175
road_00009,33848698,tertiary,הכרמל,0,,B,B,,,"LINESTRING (191071.882848 676216.413312, 191078.319496 676214.68756, 191136.503812 676199.066554, 191149.499664 676195.581528, 191164.167208 676196.327963, 191178.345408 676200.846138, 191199.84051 676204.767315, 191219.180279 676206.88698, 191238.288416 676203.71774, 191243.904471 676201.950018, 191316.527434 676182.641544, 191379.016204 676164.803233, 191439.451498 676147.802675, 191482.595992 676136.35041, 191597.949979 676105.715001)",34.90606749951009,32.178783200632424
road_00010,33848711,tertiary,ברל כצנלסון,0,,F,F,,,"LINESTRING (191036.775176 676130.458737, 191035.082175 676125.373497, 191029.527741 676105.3729, 191018.932273 676063.49619, 190997.289886 675963.465009, 190996.687908 675960.683288, 190995.327421 675953.113125, 190998.793116 675937.855646)",34.90291559951011,32.17770130063233
road_00011,33848774,tertiary,,0,,B,B,,,"LINESTRING (191889.933448 676026.461053, 191889.860404 676030.819335, 191888.362522 676034.915345, 191885.608328 676038.293966, 191881.889227 676040.59955, 191877.619501 676041.575919, 191872.69459 676040.923948, 191868.359083 676038.518271, 191865.217482 676034.689924, 191863.714533 676029.98107, 191863.928913 676025.578046, 191865.605981 676021.481545, 191868.539578 676018.180056, 191872.409975 676016.018216, 191876.784058 676015.263347, 191881.407573 676016.0603, 191885.450597 676018.42242, 191888.42186 676022.04054, 191889.933448 676026.461053)",34.91201279950977,32.17728770063293
road_00012,33848865,residential,נחשון,0,,B,B,,,"LINESTRING (191068.558777 675806.906581, 191088.999329 675801.027558, 191136.188851 675785.404053)",34.90366629950991,32.175336200632636
road_00013,33848912,residential,דוד אלעזר,0,,B,B,,,"LINESTRING (191184.35275 675963.76277, 191200.367082 676021.293704, 191206.169722 676045.862481)",34.90484059951004,32.17732530063249
road_00014,33849161,tertiary,הצברים,0,,F,F,,,"LINESTRING (192189.155913 675059.168143, 192096.30586 675080.398826, 192071.676086 675086.531058, 192065.446483 675088.410859, 192059.218768 675090.989283, 192052.540799 675094.489333, 192042.992151 675100.259348, 192033.828702 675105.462779, 192022.7345 675111.713826, 192009.059427 675119.269306, 191997.786346 675125.631757, 191985.400894 675132.219016, 191973.023239 675138.19636, 191963.669086 675142.613035, 191953.145817 675147.199224, 191946.882631 675150.587329, 191944.624106 675152.500802, 191942.029755 675155.790253, 191939.485301 675160.088693, 191937.030427 675166.116814)",34.913902699509116,32.16898870063391
road_00015,33849168,pedestrian,הצברים,0,,B,B,,,"LINESTRING (191390.190858 675195.669796, 191388.385817 675194.399521, 191386.281065 675193.895235, 191358.345504 675194.726589)",34.906836099509405,32.16986870063339
road_00016,33849183,tertiary,,0,,B,B,,,"LINESTRING (191580.456925 675189.501101, 191554.317514 675123.181506)",34.90861969950931,32.16923520063357
road_00017,33849186,tertiary,"""גשר התותים""",30,30,B,B,,,"LINESTRING (191554.317514 675123.181506, 191551.833111 675117.035168)",34.90861969950931,32.16923520063357
road_00018,33849235,residential,ביאליק,0,,F,F,,,"LINESTRING (191568.37435 675457.262387, 191557.205771 675422.483873, 191548.221349 675393.122017, 191523.536594 675306.904346, 191523.831927 675290.835189, 191494.743388 675191.444581)",34.90828799950944,32.17089120063336
road_00019,33921210,residential,עמרמי,0,,F,F,,,"LINESTRING (191517.766106 675677.667695, 191551.231039 675674.770047, 191573.142418 675668.510927, 191643.805582 675648.312006, 191646.576315 675647.517076)",34.90880339950966,32.174153300633044
road_00020,33922117,service,,0,,B,B,,,"LINESTRING (191708.120542 675631.21375, 191716.04556 675663.151356)",34.91023559950959,32.17382030063319
road_00021,33922136,residential,הבנים,0,,F,F,,,"LINESTRING (191646.576315 675647.517076, 191708.120542 675631.21375, 191765.791196 675615.886133)",34.91023559950959,32.17382030063319
road_00022,34077018,residential,טירת צבי,0,,B,B,,yes,"LINESTRING (192265.422195 676410.079407, 192319.697238 676420.624172)",34.9166974995099,32.18095390063283
road_00023,34077120,residential,זמנהוף,0,,B,B,,,"LINESTRING (192695.454108 676066.532882, 192648.396952 676079.088146, 192561.757404 676102.482862, 192476.030888 676125.055288)",34.919273099509596,32.1780908006333
road_00024,34077135,residential,האקליפטוס,0,,B,B,,,"LINESTRING (192527.043749 676306.085164, 192415.062788 676335.636454)",34.91771109950979,32.180189800632974
road_00025,34079656,residential,אוסטשינסקי,0,,F,F,,,"LINESTRING (191189.700159 675560.708177, 191166.990654 675476.881108, 191144.090103 675392.322738, 191142.469956 675386.327962, 191122.761665 675313.570814)",34.90450279950968,32.17241510063299
road_00026,34079763,residential,אימבר,0,,F,F,,,"LINESTRING (190896.411609 675551.13854, 191040.540868 675511.577793, 191166.990654 675476.881108)",34.90316109950975,32.17272480063286
road_00027,34079941,tertiary,רופין,0,,B,B,,,"LINESTRING (192699.861296 675151.657582, 192597.93707 675179.893826, 192497.238679 675207.795167)",34.91968259950898,32.169772000634204
road_00028,34315013,tertiary,המוביל,0,,F,F,,,"LINESTRING (193650.225208 676706.982088, 193644.667352 676739.088558)",34.930797899509614,32.183567500633416
road_00029,34315016,tertiary,,0,,B,B,,,"LINESTRING (193635.037867 676690.597526, 193636.009084 676686.835794, 193637.943214 676683.459736, 193640.699417 676680.713674, 193643.241708 676679.14362, 193646.058899 676678.12733, 193650.735503 676677.72731, 193655.302691 676678.802443, 193659.543894 676681.48635, 193662.637744 676685.426262, 193664.215292 676690.168457, 193664.300152 676693.872056, 193663.441698 676697.478249, 193661.705352 676700.753996, 193658.592026 676703.988888, 193654.646017 676706.12806, 193650.225208 676706.982088, 193646.499246 676706.647798, 193642.968985 676705.392603, 193639.208635 676702.663122, 193636.492457 676698.899684, 193635.085467 676694.478648, 193635.037867 676690.597526)",34.930797899509614,32.183567500633416
road_00030,34320275,tertiary,המוביל,0,,F,F,,,"LINESTRING (193646.058899 676678.12733, 193647.584582 676673.599029)",34.9307544995096,32.18330720063345
road_00031,34693107,tertiary,רפפורט,0,,F,F,,,"LINESTRING (189896.671999 677690.87621, 189904.987629 677700.089381, 189914.718988 677706.503927, 189926.036914 677710.49639, 189937.39972 677713.712484, 189950.333695 677715.693104, 189961.281562 677715.66126, 189964.938861 677715.162695, 189974.61867 677713.593138, 189985.142836 677710.535168, 189994.647441 677707.080954, 190002.812038 677703.286873, 190010.807195 677699.593093, 190016.264738 677695.551828, 190018.480782 677692.318404, 190020.712566 677688.009271)",34.8916503995116,32.192572800630096
road_00032,34693108,tertiary,אלי הורביץ,0,,F,F,,,"LINESTRING (194333.328758 676190.249424, 194542.017012 676296.224981, 194557.875186 676305.789349, 194569.973043 676316.449708, 194580.914538 676328.609966, 194591.712146 676347.490673, 194599.652801 676366.644532, 194602.305748 676379.357404, 194605.19209 676410.355879, 194604.724131 676427.223776, 194603.070318 676437.38558, 194600.639187 676445.919169)",34.94026489950902,32.179883500634375
road_00033,34693109,tertiary,לוי אשכול,0,,F,F,,,"LINESTRING (194340.328881 676671.22847, 194403.891309 676632.868838, 194455.536406 676595.592447, 194537.126409 676539.834577, 194560.981578 676514.8252, 194572.329332 676500.447872, 194584.052797 676473.893637, 194587.008962 676460.257701)",34.93934009950924,32.18258120063404
road_00034,34693110,tertiary,,0,,B,B,,,"LINESTRING (194332.12206 676194.25563, 194330.815232 676195.911164, 194329.139686 676197.201666, 194326.916178 676198.105401, 194324.52129 676198.355295, 194322.153048 676197.939769, 194319.839496 676196.75895, 194317.986501 676194.944903, 194316.773665 676192.663522, 194316.314655 676190.114131, 194316.638397 676187.551713, 194317.688991 676185.253635, 194319.372513 676183.375382, 194321.538449 676182.072575, 194323.98902 676181.456597, 194326.516881 676181.583407, 194328.895656 676182.442478, 194330.794791 676183.846111, 194332.242387 676185.71661, 194333.106051 676187.910143, 194333.328758 676190.249424, 194332.975539 676192.335077, 194332.12206 676194.25563)",34.93796129950903,32.17899610063433
road_00035,34693111,tertiary,אלי הורביץ,0,,B,B,,,"LINESTRING (194316.638397 676187.551713, 194221.398526 676140.337196, 194178.128141 676113.786329, 194170.09503 676107.130614)",34.936869399509035,32.178470600634306
road_00036,34693114,tertiary,"התע""ש",0,,F,F,,,"LINESTRING (193386.71275 676152.360906, 193384.324028 676147.665197, 193380.372216 676140.267726, 193377.772869 676134.352742, 193374.45262 676126.831668, 193371.27953 676117.857525, 193364.700406 676101.018766)",34.92788949950932,32.17832950063379
road_00037,34693116,tertiary,"התע""ש",0,,B,B,,,"LINESTRING (193277.467084 675821.63891, 193245.08864 675748.544491, 193216.103724 675685.854214, 193202.873479 675657.577565, 193185.819681 675616.957403, 193159.455864 675554.193973, 193120.845484 675493.613695, 193081.708099 675437.293207, 193066.080233 675415.798502)",34.92590339950905,32.17372720063416
road_00038,34693117,tertiary,לוינסקי,0,,B,B,,,"LINESTRING (190881.061883 676812.299582, 190871.759249 676820.897813, 190805.211706 676882.464781, 190722.60025 676959.048238)",34.90062499951074,32.185081100631415
road_00039,34693118,residential,סירקין,0,,B,B,,,"LINESTRING (190921.538709 677010.373558, 190880.010558 676964.70274, 190844.441777 676925.602326, 190805.211706 676882.464781, 190745.982847 676817.33844, 190714.916053 676783.193744, 190691.114403 676757.023924, 190629.192226 676690.4532)",34.90062499951074,32.185081100631415
road_00040,34693119,residential,יערה,0,,B,B,,,"LINESTRING (190722.60025 676959.048238, 190719.285923 676967.54094, 190719.869336 676973.749295, 190723.149456 676979.81694, 190761.584558 677018.631595, 190830.526269 677094.088027)",34.90015829951083,32.18630790063128
road_00041,34693121,residential,חבצלת השרון,0,,F,F,,,"LINESTRING (190347.525918 675855.657043, 190313.01968 675705.817851, 190311.486425 675700.676826, 190304.55523 675661.640276, 190293.917258 675622.581114)",34.895441699510116,32.174457800632204
road_00042,34693122,residential,הרקפת,0,,F,F,,,"LINESTRING (190311.486425 675700.676826, 190224.602715 675723.781706)",34.89450369951019,32.174617500632145
road_00043,34693123,residential,הרקפת,0,,F,F,,,"LINESTRING (190155.11846 675746.116283, 190179.895813 675739.768245, 190224.602715 675723.781706)",34.89402919951021,32.174760500632104
road_00044,34693124,tertiary,,0,,B,B,,,"LINESTRING (190442.747483 675832.995113, 190442.501806 675829.535959, 190443.614764 675826.250349, 190445.908587 675823.63781, 190449.02602 675822.098579, 190452.288571 675821.834201, 190455.422504 675822.767834, 190458.012454 675824.767594, 190459.699235 675827.557274, 190460.253989 675830.261475, 190459.950577 675833.001395, 190458.816534 675835.510813, 190456.954973 675837.567649, 190454.553856 675838.938493, 190451.839252 675839.522893, 190449.433668 675839.330161, 190447.167716 675838.493852, 190445.201953 675837.091132, 190443.696967 675835.210256, 190442.747483 675832.995113)",34.89690949951017,32.17566710063218
road_00045,34693125,residential,זאב גלר,0,,B,B,,,"LINESTRING (190449.02602 675822.098579, 190433.307352 675760.719975, 190409.204473 675666.629829, 190401.793277 675637.708016, 190394.801699 675610.415133, 190374.875925 675532.614364, 190364.192773 675490.904929)",34.89646269951008,32.17410690063232
road_00046,34693126,tertiary,שדרות ששת הימים,0,,B,B,,,"LINESTRING (190459.699235 675827.557274, 190473.874303 675824.079107, 190531.215533 675809.99847, 190628.973003 675786.632446, 190717.475371 675765.47816)",34.89878919951008,32.17519470063234
road_00047,34693127,residential,גאולה,0,,B,B,,,"LINESTRING (190364.192773 675490.904929, 190360.323951 675470.545012, 190365.590178 675468.389687, 190372.861339 675464.820281, 190454.865571 675443.005912, 190614.982802 675403.792673, 190619.322862 675404.27936, 190623.528185 675407.139536, 190626.511935 675411.611128)",34.896953599509914,32.172091500632575
road_00048,34693128,residential,גאולה,0,,B,B,,,"LINESTRING (190626.511935 675411.611128, 190632.965521 675422.338309, 190641.30192 675438.460625, 190664.231501 675521.831272, 190668.863186 675538.696015, 190685.874177 675600.52595, 190701.579516 675657.657762, 190708.069367 675681.270631, 190716.198246 675710.822717, 190726.890587 675749.704727)",34.89939809950994,32.17351790063257
road_00049,34693130,tertiary,שדרות ששת הימים,0,,B,B,,,"LINESTRING (190280.163027 675874.236511, 190323.268462 675862.34695, 190347.525918 675855.657043, 190442.747483 675832.995113)",34.89580299951022,32.175809900632096
road_00050,34693131,residential,היסמין,0,,B,B,,yes,"LINESTRING (190272.077329 675889.618422, 190272.478071 675891.225216, 190318.875411 676076.571333, 190328.244314 676113.981879, 190329.969148 676120.175841)",34.895492499510375,32.177801300631856
road_00051,34693132,residential,השרון,0,,B,B,,,"LINESTRING (190328.244314 676113.981879, 190298.48211 676121.530442, 190275.936208 676122.992498, 190266.501788 676121.888523, 190255.721632 676118.526214, 190246.496094 676111.355815, 190239.752184 676098.05699)",34.895035799510424,32.17821880063181
road_00052,34693134,residential,השרון,0,,B,B,,,"LINESTRING (190233.143232 676075.952885, 190217.209559 676012.29081, 190191.753481 675910.59778, 190191.180916 675908.28177)",34.89441649951036,32.17721900063185
road_00053,34716968,tertiary,,0,,B,B,,,"LINESTRING (190717.475371 675765.47816, 190717.329985 675760.765628, 190718.816908 675756.281348, 190721.749082 675752.580316, 190726.890587 675749.704727, 190731.595372 675749.148035, 190736.210456 675750.221724, 190740.179031 675752.805386, 190743.360755 675757.298632, 190744.467796 675761.886462, 190743.924608 675766.578764, 190741.805013 675770.798687, 190738.36225 675774.046498, 190735.668704 675775.418101, 190731.011998 675776.296244, 190726.331784 675775.533241, 190722.203664 675773.227268, 190719.109425 675769.654192, 190717.475371 675765.47816)",34.899871399510026,32.175104100632424
road_00054,34716970,residential,גאולה,0,,F,F,,,"LINESTRING (190820.46231 676000.745567, 190808.114829 676000.09288, 190802.660295 675998.954993, 190799.042855 675997.102208, 190796.220559 675992.940608, 190793.209736 675982.13706, 190771.847696 675905.393048, 190753.210393 675838.422124, 190743.224704 675802.554369, 190736.135617 675777.10235, 190735.668704 675775.418101)",34.900300499510095,32.17626930063232
road_00055,34716974,tertiary,שדרות ששת הימים,0,,B,B,,,"LINESTRING (190743.360755 675757.298632, 190821.973633 675737.48178, 190830.587975 675735.30616, 190874.649425 675724.203598, 190934.912418 675709.008101, 190938.003784 675708.223165)",34.90092839950996,32.174737000632526
road_00056,34716995,residential,זאב גלר,0,,F,F,,,"LINESTRING (190538.115897 676076.864626, 190530.221092 676076.576626, 190523.598456 676075.919059, 190519.633143 676074.45549, 190516.872653 676072.15679, 190515.035661 676069.589314, 190511.590718 676062.091692, 190490.748431 675989.704849, 190452.344664 675841.462073, 190451.839252 675839.522893)",34.89731749951027,32.17702240063206
road_00057,36564192,tertiary,הגליל,0,,B,B,,,"LINESTRING (192546.575105 676377.082302, 192566.421935 676446.226739, 192568.01158 676451.767162, 192576.473448 676481.131312, 192578.339013 676487.591416)",34.91931289950983,32.181190700632975
road_00058,36564832,residential,נחל קנה,0,,B,B,,,"LINESTRING (192293.397011 676509.697059, 192163.185586 676541.429127, 192015.99844 676579.740355)",34.91503449951003,32.18203950063262
road_00059,36564833,residential,הרב שמחה אסף,0,,B,B,,,"LINESTRING (192297.742123 676526.374787, 192383.62216 676502.66929)",34.91737299950992,32.18169530063279
road_00060,36564834,tertiary,תל חי,0,,B,B,,,"LINESTRING (192277.26489 676451.366315, 192293.397011 676509.697059, 192297.742123 676526.374787, 192306.708764 676560.838438)",34.91641609950996,32.18175650063272
road_00061,36565551,residential,טירת צבי,0,,F,F,,yes,"LINESTRING (192319.697238 676420.624172, 192354.996874 676424.011862, 192369.518316 676423.185749, 192387.163887 676419.756432, 192534.012522 676380.442407, 192546.575105 676377.082302)",34.91741289950988,32.18094770063288
road_00062,36565552,residential,האקליפטוס,0,,B,B,,,"LINESTRING (192319.697238 676420.624172, 192303.468841 676365.077059, 192374.274031 676346.390933)",34.916526999509856,32.18045260063287
road_00063,36670455,residential,הבנים,0,,B,B,,,"LINESTRING (191765.791196 675615.886133, 191869.766461 675588.212518, 191904.393547 675578.98091, 192025.464098 675545.884216, 192034.332847 675543.464972)",34.912318099509484,32.173354100633375
road_00064,36709410,tertiary,הגליל,0,,F,F,,,"LINESTRING (192546.575105 676377.082302, 192544.765733 676370.488985, 192542.994552 676364.072995, 192527.043749 676306.085164, 192516.720824 676268.542119, 192500.73162 676210.410276, 192497.465182 676198.531258, 192495.408241 676191.073645, 192476.030888 676125.055288, 192472.817035 676115.238743, 192468.077497 676099.149731, 192459.067539 676062.52367, 192454.477134 676042.242525, 192452.45818 676034.906803, 192450.667757 676028.391079, 192429.782759 675952.485208, 192417.973511 675909.567941, 192413.430671 675893.034863, 192410.95452 675884.036979)",34.91836349950964,32.17829230063322
road_00065,36709411,tertiary,הכרמל,0,,F,F,,,"LINESTRING (192410.95452 675884.036979, 192402.161493 675886.477874, 192350.817111 675900.742597, 192339.639757 675903.855272, 192285.958268 675918.758658)",34.91704219950954,32.17626650063333
road_00066,36716679,residential,ירושלים,0,,B,B,,,"LINESTRING (191295.725391 675871.079448, 191292.010681 675857.948964, 191289.359666 675847.476956, 191279.928616 675810.26535, 191264.841761 675750.436253)",34.90569039950985,32.17542430063275
road_00067,36716681,residential,יבנה,0,,F,F,,,"LINESTRING (191983.310011 676457.358819, 192129.978712 676415.023128, 192189.702103 676399.936303, 192219.35323 676403.51613, 192265.422195 676410.079407)",34.91468599950996,32.18089880063271
road_00068,36736473,path,האשל,0,,B,B,,yes,"LINESTRING (192516.720824 676268.542119, 192373.16064 676303.788924, 192367.55305 676287.580288, 192243.835025 676318.750575)",34.91726769950979,32.179901600632995
road_00069,36736548,residential,מבצע יונתן,0,,B,B,,,"LINESTRING (192228.247603 676263.29058, 192330.047694 676235.405656, 192366.274383 676225.472698)",34.91681249950976,32.17928390063301
road_00070,36736549,footway,מבצע יונתן,0,,B,B,,,"LINESTRING (192366.274383 676225.472698, 192418.279231 676211.927074)",34.91719689950975,32.179195200633025
road_00071,36736550,residential,מבצע יונתן,0,,B,B,,yes,"LINESTRING (192418.279231 676211.927074, 192495.408241 676191.073645)",34.91856709950967,32.178888100633166
road_00072,36736723,residential,גרץ,0,,B,B,,,"LINESTRING (192561.757404 676102.482862, 192586.143185 676186.685599)",34.919273099509596,32.1780908006333
road_00073,36736725,footway,המחתרות,0,,B,B,,,"LINESTRING (192589.85354 676248.720227, 192608.886918 676242.127185, 192623.946033 676251.934624, 192627.295701 676245.416367)",34.91976889950967,32.17935120063319
road_00074,36736726,residential,המחתרות,0,,B,B,,,"LINESTRING (192627.295701 676245.416367, 192689.459323 676228.762466, 192746.270064 676213.553551)",34.92062359950963,32.17923260063324
road_00075,36736727,footway,,0,,B,B,,,"LINESTRING (192586.143185 676186.685599, 192594.181301 676209.108995, 192603.534834 676218.986955, 192608.886918 676242.127185)",34.919613899509656,32.17905310063319
road_00076,36736729,footway,,0,,B,B,,,"LINESTRING (192500.73162 676210.410276, 192586.143185 676186.685599)",34.91862299950969,32.17906260063316
road_00077,36736730,footway,,0,,B,B,,,"LINESTRING (192367.55305 676287.580288, 192378.984018 676277.170223, 192366.274383 676225.472698)",34.91733019950978,32.179661700633
road_00078,36808417,residential,ארבל,0,,B,B,,,"LINESTRING (191439.451498 676147.802675, 191425.952008 676095.343311, 191406.731853 676020.543796, 191404.624679 676012.27702, 191402.555687 676004.176478, 191400.724988 675996.984599, 191399.247168 675991.211171, 191396.234658 675979.564671, 191389.51362 675953.556725, 191327.396557 675915.426345, 191303.459509 675898.393055, 191298.268463 675880.043616, 191295.725391 675871.079448)",34.90695019950993,32.177059000632646
road_00079,36808423,residential,המייסדים,0,,B,B,,,"LINESTRING (192096.492463 675786.484784, 192090.686776 675788.019666, 191987.023712 675815.501677, 191978.663193 675813.949633, 191968.245805 675812.103756, 191947.954496 675807.102027, 191924.572959 675803.328541, 191826.860478 675830.341393, 191712.197543 675863.301008, 191690.578815 675869.536854, 191675.490965 675873.89187, 191639.133149 675884.382106, 191578.602924 675901.84746, 191514.840424 675920.220307, 191461.058099 675935.727169, 191389.51362 675953.556725)",34.91027209950976,32.17591330063296
road_00080,36814932,tertiary,השחר,0,,B,B,,,"LINESTRING (191755.171912 676714.862294, 191744.918453 676676.033444, 191717.205376 676573.932519, 191713.694325 676562.564515, 191710.807092 676551.704913, 191695.747097 676496.931787, 191693.498852 676488.687513, 191680.571313 676441.26077)",34.91030459951021,32.182321700632315
road_00081,36814935,tertiary,בר אילן,0,,B,B,,,"LINESTRING (191877.619501 676041.575919, 191876.84009 676056.703804, 191880.809398 676073.593069, 191898.722332 676140.667779, 191901.409253 676150.729543, 191911.213577 676187.430601, 191921.522823 676226.026565, 191940.826258 676298.298456, 191961.653786 676376.255058, 191973.172693 676419.394407, 191983.310011 676457.358819, 191991.25199 676489.141368, 191999.096979 676516.466296, 192015.99844 676579.740355, 192021.143177 676599.0107, 192033.871483 676646.660194)",34.91290229950999,32.18054510063264
road_00082,36827557,residential,אשר ברש,0,,B,B,,,"LINESTRING (191452.989107 676805.293282, 191454.647555 676811.642867, 191463.778614 676846.637644, 191474.682455 676888.436365, 191478.209029 676901.955572, 191491.857624 676954.237213, 191501.794485 676994.275435)",34.90776079951049,32.18527380063183
road_00083,36827558,tertiary,"אז""ר",0,,F,F,,,"LINESTRING (191143.29298 676894.833889, 191079.038529 676916.8815, 191040.100052 676930.36418, 191013.722501 676943.645448, 191007.108542 676949.230819)",34.903527599510674,32.18539840063157
road_00084,36827993,residential,קדושי בלזן,0,,B,B,,yes,"LINESTRING (192544.765733 676370.488985, 192618.400595 676351.797063)",34.91908539950978,32.180507200633
road_00085,36827994,service,מוצקין,0,,B,B,,,"LINESTRING (192648.130431 676274.514989, 192667.020813 676338.793945)",34.92038259950971,32.18022430063313
road_00086,36827995,service,העצמאות,0,,B,B,,,"LINESTRING (192699.522754 676261.116585, 192717.054833 676325.421391)",34.92091349950967,32.18010490063318
road_00087,36827996,service,העצמאות,0,,F,F,,,"LINESTRING (192717.054833 676325.421391, 192738.468839 676384.84782)",34.921138899509714,32.18064130063313
road_00088,36827998,service,יצחק שדה,0,,B,B,,,"LINESTRING (192761.481916 676371.080916, 192738.468839 676384.84782)",34.9213832995097,32.180517700633146
road_00089,36828000,service,קדושי בלזן,0,,F,F,,,"LINESTRING (192618.400595 676351.797063, 192667.020813 676338.793945, 192717.054833 676325.421391)",34.92038259950971,32.18022430063313
road_00090,36828001,footway,,0,,B,B,,,"LINESTRING (192699.522754 676261.116585, 192648.130431 676274.514989, 192630.779786 676279.040906, 192527.043749 676306.085164)",34.91999999950969,32.17968460063318
road_00091,36828002,footway,,0,,B,B,,,"LINESTRING (192630.779786 676279.040906, 192623.946033 676251.934624)",34.91992829950968,32.17944000063319
road_00092,36839915,tertiary,משה דיין,0,,B,B,,,"LINESTRING (192591.624398 675642.199379, 192607.772307 675699.587922, 192630.429721 675786.246022)",34.91977229950932,32.174458700633686
road_00093,36840383,service,יצחק שדה,0,,F,F,,,"LINESTRING (192738.468839 676384.84782, 192659.242511 676407.512506, 192635.260545 676415.005679, 192618.400595 676351.797063)",34.92029819950976,32.18084380063306
road_00094,36890670,residential,יהודה הנשיא,0,,B,B,,,"LINESTRING (192689.459323 676228.762466, 192648.396952 676079.088146)",34.92019239950955,32.17788190063337
road_00095,36891181,tertiary,הגליל,0,,F,F,,,"LINESTRING (192320.060468 675575.920482, 192322.368048 675578.254147, 192324.667085 675580.920513)",34.91674969950933,32.17335770063363
road_00096,36897846,tertiary,תל חי,0,,F,F,,,"LINESTRING (192150.193003 675971.298042, 192152.136558 675978.567372, 192165.893852 676030.04002, 192171.581546 676051.316124, 192186.115072 676103.92891, 192199.432551 676156.811129, 192206.671699 676183.417027, 192216.986961 676221.15939, 192228.247603 676263.29058, 192239.222308 676304.335803, 192243.835025 676318.750575, 192261.92403 676396.271547, 192265.422195 676410.079407, 192267.007452 676417.438437, 192275.227852 676423.216104, 192279.944159 676441.134828, 192277.26489 676451.366315)",34.9156140995098,32.17915270063296
road_00097,36991779,residential,משה שרת,0,,B,B,,,"LINESTRING (191579.501659 675525.12031, 191571.932167 675509.494147, 191556.018161 675460.523319)",34.908795199509555,32.17271930063321
road_00098,36991781,residential,משה שרת,0,,F,F,,,"LINESTRING (191597.400124 675520.568927, 191618.31143 675517.506362, 191626.567236 675528.916757, 191643.373105 675583.418796, 191643.39076 675589.861612, 191630.674202 675595.795956)",34.909373899509525,32.17289580063325
road_00099,36991783,residential,משה שרת,0,,B,B,,,"LINESTRING (191630.674202 675595.795956, 191646.576315 675647.517076)",34.9094154995096,32.17349900063317
road_00100,36991874,residential,העמק,0,,F,F,,,"LINESTRING (192285.958268 675918.758658, 192283.9591 675911.82213, 192266.509079 675851.266029, 192237.266865 675751.064194, 192218.949454 675680.28621, 192214.641653 675663.630609, 192210.538837 675649.558259, 192204.798917 675629.956764, 192203.047391 675623.962176)",34.915842499509466,32.174914000633414
road_00101,36991888,tertiary,הכרמל,0,,B,B,,,"LINESTRING (192285.958268 675918.758658, 192278.899389 675920.71818, 192269.069749 675923.450288, 192164.138884 675952.60838, 192158.964912 675954.041721)",34.916174799509605,32.17646930063328
road_00102,36995568,residential,הדר,0,,F,F,,,"LINESTRING (192403.601258 675856.954416, 192450.517212 675844.220975, 192517.941398 675825.910846, 192569.258973 675811.979724, 192624.99608 675796.540129)",34.91881629950943,32.17559570063354
road_00103,36995691,residential,נעורים,0,,F,F,,,"LINESTRING (192429.782759 675952.485208, 192472.757188 675940.205933, 192511.340017 675929.180496, 192534.384114 676012.15575)",34.91833399950952,32.176625300633404
road_00104,36995692,residential,השקדים,0,,F,F,,,"LINESTRING (192534.384114 676012.15575, 192457.773502 676033.428878, 192452.45818 676034.906803)",34.918172499509595,32.17746560063328
road_00105,47055367,tertiary,כנרת,0,,B,B,,,"LINESTRING (192441.281888 674961.063931, 192458.120909 674947.767484, 192459.42801 674946.26696, 192460.779324 674943.657393)",34.91820679950887,32.167675400634316
road_00106,47703313,tertiary,שדרות ששת הימים,0,,B,B,,,"LINESTRING (190092.767734 675991.136887, 190105.010869 675981.775376, 190149.942092 675942.633406, 190191.180916 675908.28177, 190212.536004 675899.260067, 190235.860883 675889.74481, 190258.46498 675882.105771)",34.89370539951035,32.176589100631894
road_00107,47703334,residential,המעפילים,0,,F,F,,,"LINESTRING (190756.018243 676324.33555, 190757.01828 676327.79258, 190780.70432 676409.542391, 190786.914894 676431.337474, 190800.335846 676478.340332, 190807.593996 676503.769758, 190827.272851 676572.756142)",34.90044449951045,32.18101250063186
road_00108,47703391,tertiary,ז'בוטינסקי,0,,B,B,,,"LINESTRING (191316.527434 676182.641544, 191320.572433 676199.297516, 191321.439425 676202.455557, 191344.599498 676286.536836, 191345.95231 676291.44564, 191360.347384 676343.713916, 191369.235846 676375.981299, 191374.370733 676394.619261, 191377.562153 676406.19873, 191381.763396 676421.445959, 191384.926292 676432.947885, 191399.778191 676486.856173, 191402.150288 676495.465989, 191417.973721 676552.909103, 191420.221901 676561.053515, 191438.169522 676626.220027, 191440.703469 676635.406048, 191442.71355 676642.719427, 191443.409001 676645.256953, 191443.923401 676647.118533, 191483.332764 676790.161411, 191485.123681 676796.676974)",34.90694129951027,32.1815286006322
road_00109,47703403,residential,הרב גולד,0,,F,F,,,"LINESTRING (192239.222308 676304.335803, 192128.543871 676330.482362, 192109.063255 676335.425214, 191961.653786 676376.255058)",34.91446649950991,32.180180500632765
road_00110,47703408,tertiary,"החי""ש",0,,B,B,,,"LINESTRING (191941.461719 676689.138357, 191943.559492 676697.627058, 191964.833007 676783.855098, 191980.050224 676852.101683, 191981.92055 676860.202884, 191984.638591 676871.40679, 191987.684648 676885.337773)",34.912924299510266,32.18422080063226
road_00111,47796644,tertiary,ברל כצנלסון,0,,F,F,,,"LINESTRING (191279.470675 677048.008206, 191279.774072 677051.98842, 191279.293091 677055.371991, 191277.183719 677059.857925)",34.90564699951068,32.186652300631565
road_00112,47796646,residential,צביה לובטקין,0,,B,B,,,"LINESTRING (190827.272851 676572.756142, 190896.159274 676553.976354, 190967.144745 676533.671911, 191011.711875 676522.479765, 191079.656602 676503.958925, 191116.333641 676493.953685, 191121.365918 676492.586738)",34.90235249951045,32.18193990063186
road_00113,47796650,residential,המעפילים,0,,B,B,,,"LINESTRING (190827.272851 676572.756142, 190888.450427 676653.091965, 190912.939304 676678.92763, 190940.776825 676711.784552, 190996.918817 676772.695652, 191021.921428 676796.966547)",34.901773399510574,32.183248400631676
road_00114,47796666,residential,דוד אלעזר,0,,B,B,,,"LINESTRING (191243.904471 676201.950018, 191242.110245 676194.33667, 191233.692591 676158.608236, 191227.072584 676131.735143, 191217.398093 676091.763026, 191211.248636 676064.555959, 191206.169722 676045.862481)",34.90512049951009,32.17832190063242
road_00115,47796693,residential,נחל הדס,0,,B,B,,,"LINESTRING (191999.096979 676516.466296, 192107.181802 676484.148559)",34.91444229951001,32.18152160063264
road_00116,49590355,tertiary,בן גוריון,0,,B,B,,,"LINESTRING (191968.686808 675351.543256, 191915.368529 675365.626979, 191859.175703 675380.461779, 191753.133641 675408.462704, 191711.220284 675419.533374, 191641.795283 675437.865412, 191568.37435 675457.262387, 191556.018161 675460.523319, 191514.840386 675471.404266, 191474.72769 675481.994124)",34.91027459950946,32.17191150063339
road_00117,49590356,residential,הגבורות,0,,B,B,,,"LINESTRING (192244.445229 675276.468979, 192189.155913 675059.168143)",34.91535209950903,32.168673500634036
road_00118,49590384,tertiary,,0,,B,B,,,"LINESTRING (192723.360014 675160.078949, 192717.87515 675161.834406, 192712.026874 675161.694563)",34.920954699508926,32.16961200063428
road_00119,49590388,tertiary,הראשונים,0,,B,B,,,"LINESTRING (192721.667028 675129.665597, 192709.706829 675079.451716, 192693.654365 675011.893967, 192685.975092 674982.738405)",34.92087039950885,32.168868900634344
road_00120,49590390,tertiary,הראשונים,0,,F,F,,,"LINESTRING (192800.558941 675460.694058, 192796.923954 675459.273091, 192794.079458 675457.173604)",34.921784499509094,32.172296100634036
road_00121,49590468,residential,יציאת אירופה,0,,F,F,,,"LINESTRING (192761.278369 675361.415402, 192690.361729 675380.054667, 192667.43083 675386.469301, 192652.952372 675393.427216, 192646.282573 675407.162237, 192632.060224 675414.65179, 192615.709436 675419.762802, 192549.884957 675441.317156)",34.9202598995091,32.17169890063403
road_00122,49590544,residential,הסובלנות,0,,B,B,,,"LINESTRING (192725.785502 675225.099923, 192629.430607 675251.19206)",34.920014499509016,32.17041570063413
road_00123,49590697,residential,שועלי שמשון,0,,B,B,,,"LINESTRING (192515.834698 675316.453747, 192601.389239 675293.993094)",34.91971599950905,32.17080100063407
road_00124,49590716,residential,שועלי שמשון,0,,B,B,,,"LINESTRING (192624.348896 675287.689131, 192735.335249 675259.063334)",34.919959599509035,32.17074470063411
road_00125,49590726,residential,,0,,B,B,,,"LINESTRING (192624.348896 675287.689131, 192652.952372 675393.427216)",34.9202598995091,32.17169890063403
road_00126,49590771,residential,רופין,0,,F,F,,,"LINESTRING (192728.878094 675135.113609, 192764.613647 675130.461905, 192800.632802 675118.856624, 192893.02871 675093.08699)",34.92183329950886,32.169226400634365
road_00127,49590787,residential,הרעות,0,,B,B,,,"LINESTRING (192965.07507 675264.283043, 192945.047178 675244.796073, 192925.783812 675232.759119, 192906.463692 675220.677993, 192893.02871 675093.08699, 192872.267067 675027.703694, 192866.507193 675007.325656, 192850.588874 674979.799497, 192837.977125 674965.106039, 192826.804462 674959.668341, 192812.060458 674962.756568, 192712.504314 674992.049987)",34.92281359950881,32.16899620063444
road_00128,49590791,residential,הרעות,0,,B,B,,,"LINESTRING (192906.463692 675220.677993, 192902.952953 675227.11894, 192858.691457 675332.693581)",34.922915099508884,32.17020510063431
road_00129,49590797,residential,,0,,B,B,,,"LINESTRING (192965.07507 675264.283043, 192967.985461 675262.711864, 192972.908186 675262.4107, 192976.005018 675263.611349, 192978.50075 675265.789421, 192979.457165 675267.239618, 192980.49349 675270.397351, 192980.127406 675274.689845, 192978.550476 675277.621519, 192976.452275 675279.589789)",34.92371499950891,32.17055560063434
road_00130,49590827,residential,אבן גבירול,0,,B,B,,,"LINESTRING (192979.457165 675267.239618, 193028.409697 675252.906728, 193079.486268 675235.596639, 193172.981375 675208.296374, 193269.040944 675180.39154, 193377.961532 675150.580494, 193397.337647 675147.902586)",34.925778499508795,32.17004170063451
road_00131,49590849,residential,אלקלעי,0,,B,B,,,"LINESTRING (192972.908186 675262.4107, 192967.185411 675230.821274, 192973.417923 675136.025217, 192974.98252 675077.736058, 192975.38751 675052.19647, 192967.757133 674983.618309, 192961.713725 674887.057858, 192957.054412 674836.56961)",34.92368789950874,32.16862940063453
road_00132,49590874,residential,אלי הורביץ,0,,B,B,,,"LINESTRING (193959.460378 675856.452853, 193957.662925 675854.272787, 193948.221605 675842.841318, 193929.128287 675818.736942, 193875.353635 675741.613548, 193866.039006 675731.878492, 193831.560576 675695.858893, 193782.97665 675657.879016, 193710.543188 675610.134765)",34.93311239950887,32.17477920063447
road_00133,49590883,residential,יוחנן הסנדלר,0,,B,B,,,"LINESTRING (193656.134991 675685.59109, 193591.016118 675714.012236, 193504.24681 675747.712179, 193496.134037 675750.760292, 193408.043638 675783.954337, 193290.40532 675828.270187)",34.92918989950902,32.17494100063423
road_00134,49590994,residential,יד חרוצים,0,,B,B,both,yes,"LINESTRING (193346.263976 676039.332287, 193247.659824 676046.617047, 193247.16052 676021.268293, 193246.497264 675987.214896)",34.926547299509316,32.17760320063379
road_00135,49591006,residential,החרושת,0,,B,B,,,"LINESTRING (193246.497264 675987.214896, 193322.024062 675961.83642, 193420.674696 675928.215293, 193500.044975 675904.414056, 193509.822476 675903.291219)",34.92838499950917,32.17653950063398
road_00136,49591029,residential,הנגר,0,,B,B,,,"LINESTRING (193420.674696 675928.215293, 193428.913209 675985.292735, 193430.438332 676090.869632)",34.928470799509206,32.177054400633956
road_00137,49591036,residential,היוזמה,0,,B,B,,,"LINESTRING (193535.884222 676085.310181, 193529.912789 676092.123149, 193521.319806 676095.372079, 193495.803682 676097.24487, 193460.639625 676095.516247, 193430.438332 676090.869632, 193398.580164 676091.084455, 193386.942832 676095.073208, 193364.700406 676101.018766)",34.92880419950927,32.17804910063388
road_00138,49591056,residential,הפרסה,0,,B,B,,,"LINESTRING (193509.822476 675903.291219, 193522.293185 675904.224109, 193528.756352 675908.953796, 193532.808801 675915.142336, 193536.17709 675956.263774, 193536.225216 676074.807785, 193535.884222 676085.310181)",34.929608899509134,32.17679510063406
road_00139,49591071,residential,הגביש,0,,B,B,,,"LINESTRING (193536.17709 675956.263774, 193568.413244 675956.170404, 193673.157199 675955.88158)",34.92995069950914,32.17679500063407
road_00140,49591125,tertiary,המוביל,0,,F,F,,,"LINESTRING (193648.832717 676563.656899, 193652.137699 676557.893166, 193653.622551 676552.134063, 193656.151127 676534.029957)",34.93083809950951,32.182171200633576
road_00141,49591127,tertiary,,0,,B,B,,,"LINESTRING (193661.387121 676582.997916, 193657.619938 676585.01465, 193654.3289 676585.133911, 193649.193994 676583.339421, 193647.474219 676582.013083, 193646.01777 676580.397756, 193643.787192 676574.758995, 193643.984653 676570.821805, 193645.474887 676567.180736, 193646.969465 676565.247402, 193648.832717 676563.656899, 193651.111514 676562.298213)",34.93075669950953,32.18242590063353
road_00142,49591148,residential,בקעת בית נטופה,0,,F,F,,,"LINESTRING (193646.01777 676580.397756, 193642.048151 676576.981272, 193623.303349 676570.985331)",34.93071469950952,32.182395000633534
road_00143,49591153,residential,בקעת הירח,0,,F,F,,,"LINESTRING (193654.139833 676251.159148, 193633.319584 676245.157374)",34.9308516995093,32.17945710063384
road_00144,49591186,tertiary,עמק איילון,0,,F,F,,,"LINESTRING (193703.388232 676239.723004, 193677.922258 676250.067405)",34.93110389950931,32.17944780063386
road_00145,49591187,tertiary,עמק החולה,0,,F,F,,,"LINESTRING (194057.598158 676114.131631, 194058.271951 676108.26373, 194059.958815 676100.197623, 194062.261788 676093.360882, 194063.22604 676090.497442, 194067.592864 676083.023451, 194075.693057 676074.985661, 194090.965171 676061.063736, 194094.519328 676056.718957, 194095.224572 676052.104066)",34.93532619950905,32.1778780006343
road_00146,49591200,residential,האילנות,0,,B,B,,,"LINESTRING (194252.448289 676426.052238, 194284.027703 676386.13016, 194290.701775 676377.297649, 194311.588915 676361.088828, 194337.187906 676351.000743, 194361.46259 676346.915283, 194390.640288 676353.829396, 194486.456949 676398.959293, 194542.457293 676425.613275, 194582.573343 676447.449398)",34.93865829950912,32.180399600634225
road_00147,49591205,residential,,0,,B,B,,,"LINESTRING (194328.895656 676182.442478, 194331.832032 676179.962305, 194334.182419 676176.973478, 194423.586235 676003.516324)",34.938064299509016,32.17880350063435
road_00148,49591209,residential,,0,,B,B,,,"LINESTRING (194322.153048 676197.939769, 194321.26225 676203.830367, 194319.938256 676209.977091, 194297.231911 676257.151587)",34.93791239950905,32.17910080063432
road_00149,50736947,tertiary,תל חי,0,,B,B,,,"LINESTRING (191943.747466 675215.346001, 191944.855943 675220.643663, 191958.514403 675273.180831, 191962.54265 675287.397439, 191975.806396 675333.559378, 191977.645602 675340.518454)",34.91290069950927,32.1705978006337
road_00150,50805850,tertiary,דוד רמז,0,,B,B,,,"LINESTRING (191061.316866 677330.650612, 191059.955626 677332.839015, 191036.720927 677370.252853, 191013.369285 677409.618794, 191007.187259 677417.797857, 190980.346762 677447.093487, 190962.386853 677458.6768, 190953.209228 677464.591006, 190943.777366 677467.278947, 190929.459256 677469.426174, 190910.813952 677468.635842, 190886.301583 677463.925364)",34.902465299511036,32.190177200631
road_00151,53796886,residential,שמחה,0,,B,B,,,"LINESTRING (190106.624961 676761.51459, 190135.009333 676780.439583, 190145.490117 676788.127453, 190158.269872 676798.359235, 190172.955891 676812.311535, 190188.076314 676826.48439, 190220.571195 676864.737508, 190223.220771 676867.868146, 190229.926553 676877.917913, 190232.376383 676883.73274, 190232.801466 676893.800603, 190232.059123 676904.548276)",34.89408269951092,32.184560400631085
road_00152,53796995,tertiary,נביאים,0,,B,B,,,"LINESTRING (194579.77824 677196.00331, 194535.196471 677366.610185)",34.940641899509615,32.187998300633545
road_00153,53796996,residential,מיכה,0,,B,B,,,"LINESTRING (193746.900955 676998.062764, 193767.173362 676929.867862, 193770.137529 676919.880016, 193774.065055 676891.836407, 193767.079475 676822.024986, 193755.380808 676756.849736, 193753.649381 676747.184284, 193756.711883 676708.985101, 193756.436604 676697.109197)",34.932033899509655,32.18460760063337
road_00154,53797000,residential,עפרוני,0,,B,B,,,"LINESTRING (193451.246028 676853.524701, 193493.005868 676997.811128, 193519.503637 677089.385087)",34.929122899509856,32.18618650063303
road_00155,53797001,residential,תור,0,,B,B,,,"LINESTRING (193190.851323 677181.761556, 193257.75682 677162.747867, 193333.878615 677141.115996, 193441.785911 677110.454096, 193452.923798 677107.054402)",34.927431599509994,32.1874751006328
road_00156,53797002,residential,דבורה הנביאה,0,,B,B,,,"LINESTRING (194245.627184 677726.629237, 194289.49464 677719.212461, 194428.020983 677697.844417, 194489.865962 677688.299381)",34.93901949950998,32.192520400632965
road_00157,53797003,residential,דוכיפת,0,,B,B,,,"LINESTRING (193642.757395 676789.02838, 193601.236117 676800.755658, 193542.205577 676817.429269, 193517.805192 676827.117107, 193451.246028 676853.524701, 193424.903255 676863.2621, 193403.365196 676867.420415)",34.92939049950973,32.18464780063321
road_00158,59375695,trunk_link,,0,,F,F,,,"LINESTRING (189893.41295 677558.868932, 189895.204075 677559.294632)",34.8909355185931,32.19115711471855
road_00159,60006112,motorway_link,,0,,F,F,,,"LINESTRING (192223.41078 674985.687007, 192187.145026 674998.792563, 192162.047624 675006.500502, 192145.00087 675012.523455, 192135.456482 675016.419286, 192125.293279 675021.691859, 192112.890456 675028.911093, 192098.200267 675037.855342, 192078.266681 675050.628454, 192038.916514 675082.449921, 192017.047749 675098.067232, 192004.204846 675106.418896, 191982.482357 675120.283785, 191964.639094 675131.609865, 191951.730462 675140.039399, 191946.657155 675143.956564, 191942.932156 675147.69265, 191939.792158 675151.504776, 191937.462116 675154.871137, 191935.137036 675160.067212)",34.91417669950908,32.16859380063397
road_00160,60185520,service,,0,,B,B,,,"LINESTRING (190034.790906 675873.259308, 190014.161606 675852.837215, 190027.761558 675839.734588, 190048.192252 675859.968765)",34.89241309951033,32.175658000631906
road_00161,60185523,service,,0,,B,B,,,"LINESTRING (190454.865571 675443.005912, 190471.177228 675507.144062)",34.897124599509944,32.17267030063251
road_00162,60185524,residential,ההסתדרות,0,,B,B,,,"LINESTRING (190364.192773 675490.904929, 190293.027198 675509.76132, 190297.584818 675526.892255, 190243.905754 675542.338723)",34.89523569951001,32.172689300632406
road_00163,60185525,residential,הצדק,0,,B,B,,,"LINESTRING (190149.942092 675942.633406, 190110.524239 675898.855903, 190107.506972 675895.87052, 190060.93536 675847.345505, 190052.254991 675855.942671, 190048.192252 675859.968765, 190034.790906 675873.259308, 190030.135707 675877.874859, 190018.248712 675889.730515)",34.893256899510334,32.17616630063191
road_00164,60185527,residential,בלפור,0,,B,B,,,"LINESTRING (190641.30192 675438.460625, 190735.943625 675419.263006, 190750.85971 675417.435439, 190760.344393 675419.426869, 190766.266282 675408.941854, 190779.619652 675401.485396, 190819.233379 675388.010985)",34.8999343995098,32.17188460063276
road_00165,60185528,residential,אינשטיין,0,,B,B,,,"LINESTRING (190760.344393 675419.426869, 190767.742295 675427.268253, 190784.908783 675487.534313, 190795.073259 675523.201983, 190807.371522 675566.359992)",34.90045149950981,32.17250150063274
road_00166,60185529,residential,בלום,0,,F,F,,,"LINESTRING (190664.231501 675521.831272, 190784.908783 675487.534313)",34.89917099950988,32.17280770063261
road_00167,60185535,footway,,0,,B,B,,,"LINESTRING (190819.233379 675388.010985, 190837.520799 675380.939899, 190848.454177 675374.876515)",34.90101249950973,32.17154160063285
road_00168,60185546,service,,0,,F,F,,,"LINESTRING (190433.307352 675760.719975, 190416.933568 675760.522846, 190396.919677 675681.435918, 190388.20251 675641.106983, 190401.793277 675637.708016)",34.89633199951008,32.174240100632296
road_00169,61491019,tertiary,,0,,B,B,,,"LINESTRING (193290.40532 675828.270187, 193290.620959 675831.430068, 193289.780022 675834.492871, 193287.985341 675837.103473, 193285.43429 675838.995224, 193282.701497 675839.900501, 193279.82506 675839.963366, 193277.059569 675839.160983, 193274.650498 675837.592523, 193272.824513 675835.379383, 193271.733035 675832.720778, 193271.480865 675830.02674, 193272.002159 675827.363974, 193273.240927 675824.965499, 193275.112717 675822.997872, 193277.467084 675821.63891, 193280.681427 675820.943086, 193283.936413 675821.378261, 193286.864015 675822.867761, 193289.105467 675825.26835, 193290.40532 675828.270187)",34.92690359950915,32.175568900634005
road_00170,61491053,service,,0,,F,F,,,"LINESTRING (193362.456174 675246.387044, 193359.359616 675248.945531, 193356.736425 675252.190334, 193355.074582 675255.155435, 193354.063801 675258.218666, 193358.195446 675276.727082, 193359.344806 675279.873472)",34.92769699950877,32.170496100634615
road_00171,61491054,residential,,0,,B,B,,,"LINESTRING (193286.748003 675434.012381, 193287.595151 675437.004294, 193287.461679 675440.109627, 193286.365651 675443.017836, 193284.410103 675445.451423, 193281.801847 675447.143714, 193278.757472 675447.96108, 193275.616176 675447.769576, 193272.689351 675446.623843, 193270.279042 675444.611818, 193268.621615 675441.954674, 193267.878069 675438.907049, 193268.143522 675435.779196, 193269.371676 675432.903912, 193271.450037 675430.54763, 193274.162331 675428.965961, 193277.037369 675428.315369, 193279.961825 675428.540701, 193282.699818 675429.609298, 193285.005892 675431.433078, 193286.748003 675434.012381)",34.92687569950889,32.17202820063437
road_00172,61491055,service,,0,,B,B,,,"LINESTRING (193285.005892 675431.433078, 193286.832629 675430.252907)",34.9269600995089,32.17205650063438
road_00173,61491056,residential,המנופים,0,,B,B,,,"LINESTRING (193504.24681 675747.712179, 193476.306394 675672.398935, 193472.962786 675659.46634, 193450.582029 675589.727923, 193410.651652 675517.561675, 193399.261268 675500.435842, 193392.494841 675487.922364, 193386.733711 675481.239254, 193381.492258 675478.591297)",34.92871129950894,32.173487800634334
road_00174,61491057,residential,,0,,F,F,,,"LINESTRING (193284.410103 675445.451423, 193305.788365 675498.924127)",34.92695339950891,32.17218290063438
road_00175,61491058,residential,גלגלי הפלדה,0,,B,B,,,"LINESTRING (193294.846677 675509.586912, 193256.133846 675522.339598, 193159.455864 675554.193973)",34.926651499508964,32.17287560063426
road_00176,61491059,residential,,0,,F,F,,,"LINESTRING (193225.275115 675256.676561, 193230.202649 675265.535226, 193233.13004 675270.528913)",34.92638359950881,32.1705592006345
road_00177,61491061,service,,0,,B,B,,,"LINESTRING (193601.505068 675447.821399, 193588.388158 675463.712439, 193570.234346 675449.874984, 193562.019269 675442.499411)",34.93017579950881,32.172354600634534
road_00178,61491062,service,,0,,B,B,,,"LINESTRING (193544.805246 675449.529563, 193532.647646 675416.303958, 193528.278851 675411.890508, 193522.40567 675413.014436, 193514.440839 675415.008674, 193494.752891 675354.578266, 193480.814766 675314.914428, 193478.968509 675312.16902, 193474.907655 675310.17226, 193467.06878 675309.815292, 193459.731074 675309.956063)",34.92918599950877,32.17136830063459
road_00179,61491063,service,,0,,B,B,,,"LINESTRING (193532.266031 675458.920904, 193514.440839 675415.008674, 193499.918142 675419.625658, 193478.874909 675360.363116, 193464.063572 675318.58349, 193461.626484 675313.477588, 193459.731074 675309.956063)",34.929238999508826,32.171955000634526
road_00180,61491064,residential,היוצרים,0,,B,B,,,"LINESTRING (193216.103724 675685.854214, 193273.047441 675662.22012, 193450.582029 675589.727923)",34.92682699950905,32.174137400634145
road_00181,61491610,tertiary,עתיר ידע,0,,F,F,,,"LINESTRING (193437.323432 674751.614785, 193435.010733 674758.296432, 193431.237355 674769.184644, 193428.990038 674775.611073, 193425.30696 674784.924384, 193420.333302 674794.884183, 193414.879029 674805.011555, 193404.91654 674818.998463, 193397.045537 674828.322532, 193389.330998 674836.126981, 193383.695635 674841.83023, 193374.651699 674849.8488, 193372.440116 674851.806188, 193363.429054 674857.928424, 193350.571271 674864.703734, 193338.001333 674866.033504)",34.92816439950845,32.166620400635026
road_00182,61491613,service,,0,,B,B,,,"LINESTRING (193409.178513 674866.21659, 193412.412946 674884.261571, 193421.063059 674913.936365, 193432.437296 674935.564486, 193440.975761 674947.474623, 193414.407404 674933.714459, 193401.902817 674938.426201, 193376.068262 674876.215369, 193386.499835 674868.625717, 193395.194035 674867.6719, 193409.178513 674866.21659)",34.9284166995085,32.167393000634945
road_00183,61512614,service,,0,,B,B,,,"LINESTRING (193562.019269 675442.499411, 193544.805246 675449.529563, 193532.266031 675458.920904, 193512.419547 675465.547534, 193431.701075 675494.597298)",34.92937029950884,32.172369400634494
road_00184,61512615,service,,0,,B,B,,,"LINESTRING (193570.234346 675449.874984, 193587.9675 675428.183569, 193587.821897 675426.564911, 193586.044114 675424.761894, 193575.459809 675416.671548, 193564.33513 675407.506935, 193562.486919 675407.677988, 193560.745288 675408.957694, 193552.859507 675419.756561)",34.93003999950877,32.17193010063459
road_00185,61512623,service,,0,,B,B,,,"LINESTRING (193552.859507 675419.756561, 193552.411959 675421.787035, 193553.153129 675423.936457, 193558.920592 675436.829622, 193562.019269 675442.499411)",34.9298640995088,32.17211150063456
road_00186,62116947,residential,הסדנה,0,,B,B,,,"LINESTRING (193081.708099 675437.293207, 193143.51084 675410.219203, 193252.754805 675382.546163, 193260.501592 675380.130891)",34.92546049950893,32.171861900634326
road_00187,62147007,residential,אהרונוביץ',0,,F,F,,,"LINESTRING (191144.090103 675392.322738, 191095.391298 675405.16699, 190988.116766 675433.467696, 190872.445417 675464.033218)",34.90260759950972,32.17201910063292
road_00188,62147433,residential,התחיה,0,,F,F,,,"LINESTRING (191083.6106 675590.656895, 191098.141773 675646.927617, 191099.877316 675653.720494, 191136.188851 675785.404053)",34.903785999509815,32.17400810063279
road_00189,62147434,residential,בילו,0,,F,F,,,"LINESTRING (191490.743552 675578.07176, 191405.356603 675601.439598, 191383.670648 675607.376868, 191237.117359 675646.87295)",34.906796299509686,32.173597300633006
road_00190,63658238,secondary,שדרות מנחם בגין,0,,F,F,,,"LINESTRING (191139.04048 677091.026476, 191121.549564 677095.24489, 191112.239008 677097.610741, 191098.914238 677101.085662, 191019.596545 677121.545661, 190963.406739 677136.895666, 190914.029296 677153.502085, 190851.759885 677186.490719, 190736.606674 677262.944146, 190666.231493 677310.251004, 190655.689851 677317.333727, 190545.746105 677387.564563, 190484.212431 677426.308746, 190434.154541 677451.524777, 190390.201845 677471.467229, 190341.263588 677489.073249, 190266.309676 677513.72952, 190220.665604 677525.737634, 190176.005626 677535.613965, 190120.854293 677546.895906, 190062.137704 677557.87798, 189965.091441 677573.052638, 189940.640912 677576.70561, 189925.699915 677578.556658, 189909.228096 677579.314345, 189894.584828 677578.142654)",34.89785839951116,32.18962930063077
road_00191,66215798,residential,"החי""ל",0,,F,F,,,"LINESTRING (190699.870425 676126.295675, 190632.684305 676146.92384, 190482.500677 676189.546271, 190444.817497 676200.776491)",34.8988176995103,32.178443800632
road_00192,66349431,residential,חנה סנש,0,,B,B,,,"LINESTRING (190410.807989 676309.260512, 190412.97004 676306.781411, 190418.337557 676300.622582, 190442.845962 676220.421261, 190444.817497 676200.776491, 190445.025749 676131.767248)",34.89680259951044,32.179101700631826
road_00193,66349638,residential,דליה,0,,B,B,,,"LINESTRING (190827.272851 676572.756142, 190742.149164 676599.023254, 190738.766722 676603.490723, 190744.924444 676609.949443)",34.89996479951058,32.18252350063164
road_00194,66661562,motorway_link,,0,,F,F,,,"LINESTRING (193266.219903 674618.144297, 193264.428441 674620.918024, 193261.421059 674632.514034, 193261.154968 674653.684071)",34.92673189950837,32.16485150063512
road_00195,66661563,motorway_link,,0,,F,F,,,"LINESTRING (193257.18771 674684.422581, 193237.18333 674648.689254, 193231.089284 674641.153222, 193228.918762 674639.748753)",34.92647449950839,32.16499680063507
road_00196,66943225,service,,0,,F,F,,,"LINESTRING (194304.849722 674109.03716, 194297.867648 674096.967208, 194286.78759 674094.699196, 194243.144971 674115.411222, 194227.686719 674082.259584, 194280.661111 674058.674427, 194289.589174 674064.230174, 194295.833991 674075.69204, 194312.104465 674105.515003, 194312.681401 674109.938172)",34.93761649950765,32.16002500063629
road_00197,66943226,service,,0,,B,B,,,"LINESTRING (194350.990151 674186.680582, 194351.084334 674195.516702)",34.93829546637214,32.1609355848229
road_00198,66943241,unclassified,ציר המוביל הארצי,0,,B,B,,,"LINESTRING (193778.151371 674313.121741, 193776.4777 674371.200249, 193776.252612 674379.173972, 193778.933615 674391.187914)",34.93219929950802,32.1625069006357
road_00199,66943245,track_grade1,ציר המוביל הארצי,0,,B,B,,,"LINESTRING (193802.456885 674211.623901, 193798.361158 674270.122088, 193778.151371 674313.121741)",34.93243399950795,32.1615959006358
road_00200,67122233,residential,,0,,B,B,,,"LINESTRING (193989.751959 674283.878866, 193950.986959 674206.706454)",34.934462599507896,32.16172430063592
road_00201,68237758,unclassified,ציר המוביל הארצי,0,,B,B,,,"LINESTRING (193778.933615 674391.187914, 193780.650101 674398.535731, 193777.141015 674475.789033)",34.93224279950804,32.16275350063568
road_00202,70204696,tertiary,"אז""ר",0,,B,B,,,"LINESTRING (192319.045248 676568.257429, 192408.694296 676543.422043, 192562.161308 676500.409124, 192572.716076 676497.464675)",34.917637699509946,32.18206340063277
road_00203,70204697,tertiary,,0,,B,B,,,"LINESTRING (192306.708764 676560.838438, 192310.651142 676560.949872, 192314.304756 676562.403882, 192317.244717 676565.013087, 192319.045248 676568.257429, 192319.687458 676572.125869, 192318.962153 676575.975788, 192316.952993 676579.352301, 192313.904082 676581.844455, 192310.681978 676583.050716, 192306.740261 676583.183245, 192303.0024 676581.962337, 192299.902622 676579.542082, 192297.818928 676576.209787, 192296.462438 676573.26367, 192297.161343 676570.123534, 192298.481193 676566.427273, 192300.991128 676563.404272, 192304.390344 676561.421284, 192306.708764 676560.838438)",34.916555499510004,32.18241950063267
road_00204,70204698,tertiary,"אז""ר",0,,B,B,,,"LINESTRING (192595.719778 676494.587078, 192629.910689 676481.832677, 192638.230832 676479.060545, 192677.98791 676467.001311, 192722.555132 676455.051541, 192808.240816 676435.752607)",34.92096819950975,32.18127400063305
road_00205,70204700,tertiary,הגליל,0,,F,F,,,"LINESTRING (192588.956314 676508.255879, 192591.387326 676518.129983, 192593.017576 676524.768141, 192596.570305 676537.999327)",34.919592699509856,32.18189960063293
road_00206,70204701,residential,השלום,0,,B,B,,,"LINESTRING (191940.826258 676298.298456, 191825.627838 676330.204829, 191816.306281 676339.234709, 191796.459744 676369.030231, 191782.788997 676380.944122, 191764.760456 676385.684071, 191688.122146 676405.576979)",34.91136219951001,32.18020770063259
road_00207,70204702,service,,0,,B,B,,,"MULTILINESTRING ((192632.538471 676498.370923, 192620.808209 676502.593685, 192613.239167 676507.648235, 192636.222037 676589.659164, 192649.376539 676589.114295, 192656.638864 676582.208672, 192632.538471 676498.370923), (192632.538471 676498.370923, 192629.910689 676481.832677))",34.919887999509825,32.18170030063294
road_00208,70204703,tertiary,תל חי,0,,B,B,,,"LINESTRING (192361.755871 676783.120013, 192359.373282 676770.251724, 192353.664229 676744.218258, 192338.149583 676676.714922, 192310.681978 676583.050716)",34.91688589951005,32.1832637006326
road_00209,70204862,tertiary,,0,,B,B,,,"LINESTRING (192588.786209 676486.754231, 192591.884419 676488.597936, 192594.277577 676491.297382, 192595.719778 676494.587078, 192596.096298 676497.879595, 192595.52965 676501.141341, 192594.056882 676504.117165, 192591.809352 676506.551666, 192588.956314 676508.255879, 192585.450349 676509.130126, 192581.847141 676508.895705, 192578.882935 676507.794629, 192576.322284 676505.949503, 192574.354127 676503.48181, 192573.120426 676500.579689, 192572.716076 676497.464675, 192573.413133 676493.592672, 192575.356262 676490.172028, 192578.339013 676487.591416, 192581.673938 676486.229691, 192585.275745 676485.931831, 192588.786209 676486.754231)",34.919512899509854,32.18175840063292
road_00210,70205154,residential,הדר,0,,B,B,,,"LINESTRING (192766.034404 675756.856827, 192715.857702 675770.861566, 192642.961035 675792.178929)",34.920916299509315,32.175104000633695
road_00211,70205157,residential,רחל המשוררת,0,,B,B,,,"LINESTRING (191619.876133 676218.632385, 191706.519778 676194.408975, 191738.551821 676185.450011)",34.91020229950996,32.178899000632654
road_00212,70205158,residential,עציון,0,,F,F,,,"LINESTRING (191940.826258 676298.298456, 192081.997181 676258.87131, 192097.84836 676254.448299, 192216.986961 676221.15939)",34.91418169950987,32.179489500632826
road_00213,70205159,residential,גייסות השריון,0,,B,B,,,"LINESTRING (192778.487907 675604.025213, 192759.033765 675608.922369, 192738.958548 675531.938133, 192731.647472 675502.726104, 192730.112847 675496.608876)",34.92116789950916,32.17295000063394
road_00214,70205160,residential,"אח""י דקר",0,,B,B,,,"LINESTRING (192789.693025 675517.965327, 192738.958548 675531.938133)",34.92116789950916,32.17295000063394
road_00215,70205163,residential,העמק,0,,F,F,,,"LINESTRING (192160.460853 675475.735565, 192145.56933 675420.140805, 192130.649055 675364.435254, 192116.452731 675311.433558)",34.9148796995093,32.17192760063365
road_00216,70205220,residential,י. כהן,0,,B,B,,,"LINESTRING (191191.07769 677067.560565, 191190.114819 677063.826155, 191184.138924 677041.198466, 191181.042425 677029.851658, 191169.155738 676987.690028, 191167.527037 676981.917047, 191143.29298 676894.833889, 191121.522376 676818.766672, 191107.380446 676772.929776)",34.90420959951062,32.18520120063164
road_00217,70205221,residential,חטיבת גולני,0,,B,B,,,"LINESTRING (191197.972486 676746.351074, 191192.601411 676747.929625, 191107.380446 676772.929776, 191050.944343 676788.623725, 191035.255009 676793.136649, 191021.921428 676796.966547)",34.903832399510556,32.18410100063172
road_00218,70205222,residential,הקשת,0,,B,B,,,"LINESTRING (191162.543637 676615.219158, 191156.569026 676616.832678, 191071.360226 676639.803743, 191003.05775 676658.214761)",34.90345439951048,32.182899600631835
road_00219,70205223,residential,ניצנים,0,,F,F,,,"LINESTRING (190800.335846 676478.340332, 190960.546339 676434.064269, 191098.301482 676395.985859, 191103.126419 676394.652751)",34.90228549951037,32.18104150063195
road_00220,70205224,residential,חצרות הדר,0,,F,F,,,"LINESTRING (191083.159794 676326.75342, 191077.967267 676328.17628, 190918.045558 676371.95063, 190780.70432 676409.542391)",34.90183669951035,32.18048030063197
road_00221,70205225,residential,משה הס,0,,F,F,,,"LINESTRING (191478.209029 676901.955572, 191256.497707 676962.983887)",34.90540799951062,32.18581860063163
road_00222,70205291,residential,נחום,0,,B,B,,,"LINESTRING (193915.819724 676755.213684, 193753.649381 676747.184284)",34.93189349950959,32.18393240063343
road_00223,70205292,tertiary,דניאל,0,,B,B,,,"LINESTRING (194133.047287 677013.259696, 194142.455611 676925.054389, 194153.947359 676847.833365, 194154.392112 676840.879289, 194156.997673 676800.374808, 194159.611714 676767.045061, 194159.738931 676765.115213, 194162.683993 676713.243401, 194162.39724 676704.139833)",34.93613549950952,32.184849100633606
road_00224,70205293,residential,יואל,0,,B,B,,,"LINESTRING (193924.141317 676902.868466, 193936.34076 676860.19955, 193953.395567 676839.453009, 193982.715644 676802.108336, 194012.010349 676758.320954, 194019.126307 676734.095253)",34.93432099950955,32.184432900633546
road_00225,70205294,residential,יחזקאל,0,,B,B,,,"LINESTRING (194239.765494 676798.649529, 194241.67103 676783.69647, 194242.565205 676775.410571, 194324.430471 676782.337849, 194367.111836 676789.373697)",34.937944999509405,32.18426230063377
road_00226,70205301,residential,ינאי המלך,0,,B,B,,,"LINESTRING (194432.26962 676767.211692, 194468.819147 676777.290461, 194540.252017 676814.130727, 194609.173832 676861.700956, 194648.103798 676900.606608, 194675.733899 676934.871426)",34.94023269950936,32.184553800633886
road_00227,70205304,residential,ירמיהו,0,,B,B,,,"LINESTRING (193774.065055 676891.836407, 193820.457143 676893.227216, 193883.778201 676895.118925, 193898.751772 676898.053117, 193924.141317 676902.868466, 193934.897265 676904.937274, 193959.95155 676918.957646, 194031.798687 676966.461178, 194083.916078 676994.819023, 194133.047287 677013.259696, 194176.682008 677028.553861, 194196.980635 677034.147736, 194217.886497 677037.444663, 194223.414854 677038.318052, 194245.381802 677039.793757, 194361.252715 677024.646858)",34.93538899950965,32.18617300063342
road_00228,70206584,residential,שדרות גאולים,0,,B,B,,,"LINESTRING (193285.391595 674955.426274, 193279.735259 674956.605227, 193200.58759 675003.517496)",34.92691719950857,32.167774500634835
road_00229,70206589,residential,אבן עזרא,0,,B,B,,,"LINESTRING (193254.511824 674890.245745, 193285.391595 674955.426274, 193286.301835 674957.264742, 193289.874019 674963.554223, 193291.750116 674966.853981, 193377.961532 675150.580494)",34.92704429950857,32.167867200634824
road_00230,70206590,residential,אברבנאל,0,,B,B,,,"LINESTRING (193176.611394 674734.088818, 193072.431312 674774.746018, 193062.056894 674786.128364, 193056.759109 674798.262678, 193045.354892 674896.010731)",34.92472439950855,32.16612970063487
road_00231,70206593,residential,"יל""ג",0,,B,B,,,"LINESTRING (193248.574061 674877.419732, 193215.492323 674891.078413, 193195.043789 674902.331419, 193180.074675 674913.270874, 193168.276354 674924.789871, 193153.561448 674950.089276)",34.92602079950859,32.167283100634826
road_00232,70206595,residential,"רמח""ל",0,,B,B,,,"LINESTRING (193114.737521 675044.381964, 193097.871149 675029.244568, 193076.618275 675013.930079, 193046.238146 674996.233008, 193022.917526 674987.422307, 192996.902653 674983.542306, 192967.757133 674983.618309)",34.92444059950869,32.16812640063464
road_00233,70206599,residential,אלחריזי,0,,F,F,,,"LINESTRING (192974.98252 675077.736058, 192996.574135 675081.871494, 193018.945703 675092.137296, 193037.076764 675103.944498, 193045.366458 675117.995181, 193049.511729 675130.626137, 193053.599995 675143.101994, 193079.486268 675235.596639)",34.924471599508784,32.16933840063451
road_00234,70206602,residential,אבן שפרוט,0,,B,B,,,"LINESTRING (193172.981375 675208.296374, 193150.716495 675126.204917, 193137.461753 675088.824162, 193127.579972 675060.938158)",34.92554469950875,32.169300900634575
road_00235,70206605,footway,"הל""ה",0,,B,B,,,"LINESTRING (193287.337293 675241.856398, 193283.918424 675229.145848, 193279.72438 675215.760855)",34.92695409950878,32.17023230063458
road_00236,70206607,residential,"שד""ל",0,,B,B,,,"LINESTRING (193170.529775 674720.420441, 193176.611394 674734.088818, 193248.574061 674877.419732)",34.925829999508466,32.16576550063498
road_00237,70206875,residential,הרצל,0,,F,F,,,"LINESTRING (191711.220284 675419.533374, 191738.320172 675517.011595, 191765.791196 675615.886133, 191775.992571 675652.56378, 191793.528228 675715.658259, 191794.976056 675720.877359, 191798.567007 675733.808748, 191800.356812 675739.925147, 191812.285285 675780.568086, 191826.860478 675830.341393, 191848.261331 675903.439067, 191865.882477 675963.605886, 191876.784058 676015.263347)",34.9111386995096,32.17458390063317
road_00238,70208990,residential,יהודה הלוי,0,,B,B,,,"LINESTRING (191509.225969 676617.795809, 191535.877876 676717.381843, 191546.825492 676764.869315)",34.90837769951037,32.18361080063204
road_00239,70208991,residential,האמוראים,0,,B,B,,,"LINESTRING (191609.940071 676697.894035, 191581.666183 676598.101575)",34.909163599510315,32.18343690063212
road_00240,70208993,residential,רחל המשוררת,0,,B,B,,,"LINESTRING (191898.722332 676140.667779, 191810.758423 676165.25908, 191795.30306 676169.581656)",34.91130839950989,32.178638700632746
road_00241,70208997,residential,"רש""י",0,,B,B,,,"LINESTRING (191666.325193 676411.735755, 191663.506253 676415.513831, 191648.776083 676419.313454, 191550.696909 676444.31181, 191543.374745 676446.372378, 191462.435404 676469.173136, 191407.957828 676484.549167, 191399.778191 676486.856173)",34.908465099510174,32.181167100632315
road_00242,70209000,service,,0,,B,B,,,"LINESTRING (190963.206215 676820.385523, 190997.176493 676810.764474, 191021.921428 676796.966547)",34.902662699510635,32.18443940063162
road_00243,70209004,residential,סולד,0,,F,F,,,"LINESTRING (191438.169522 676626.220027, 191430.960466 676628.20274, 191319.479619 676658.873748, 191304.741203 676662.928953, 191190.085364 676694.464078, 191184.374729 676696.032489)",34.905928399510415,32.18311400063196
road_00244,70209008,footway,"ש""י עגנון",0,,B,B,,,"LINESTRING (191241.577069 676904.740048, 191275.177375 676894.344707, 191276.636341 676900.140354)",34.90560809951058,32.185200100631704
road_00245,70209011,footway,אבא קובנר,0,,B,B,,,"LINESTRING (191270.074144 677016.063874, 191276.962509 677014.170647)",34.90555039951066,32.186297600631605
road_00246,70213185,residential,חביבה רייך,0,,F,F,,,"LINESTRING (190010.386223 676245.176245, 189975.235288 676277.259837)",34.89221639951061,32.179313700631525
road_00247,70213187,residential,מורדי הגטאות,0,,F,F,,,"LINESTRING (189814.778771 676307.790365, 189854.303133 676284.72014, 189958.24082 676189.792501, 190044.909582 676110.37447, 190049.845238 676104.937502)",34.891665199510584,32.17881290063154
road_00248,70213193,residential,סירני,0,,B,B,,yes,"LINESTRING (190203.431015 676185.92228, 190195.280813 676188.618297, 190186.249753 676193.279667, 190172.728334 676204.086381, 190102.446683 676269.095275, 190065.678969 676303.101678, 190029.983802 676336.129249, 189959.308915 676401.495164)",34.89280089951062,32.179837500631486
road_00249,70213194,residential,הגנה,0,,B,B,,,"LINESTRING (190106.624961 676761.51459, 190099.484024 676757.587458, 190092.6293 676751.541446, 190054.051051 676713.383988, 190005.455739 676661.771156, 189994.10584 676653.653471, 189957.702425 676617.730101)",34.892664999510906,32.18353700063112
road_00250,70213233,residential,הידיד,0,,B,B,,,"LINESTRING (190228.413669 676644.104353, 190198.137851 676675.740673, 190162.811603 676708.844364, 190106.624961 676761.51459, 190028.158332 676835.053273)",34.89322099951091,32.18397240063109
road_00251,70237289,residential,הושע,0,,B,B,,,"LINESTRING (194351.574112 676951.004835, 194228.88469 676958.77225)",34.938228399509526,32.185783900633645
road_00252,70237290,residential,עמוס,0,,B,B,,,"LINESTRING (194353.307111 676877.700531, 194236.181513 676866.790856)",34.93700699950949,32.18502190063363
road_00253,70237291,residential,השופטים,0,,B,B,,,"LINESTRING (194359.061971 676836.678209, 194403.246799 676845.440413, 194445.94785 676856.768086, 194484.091429 676870.934915, 194519.60212 676888.257708, 194552.728649 676914.025402, 194577.976842 676942.107998, 194590.37937 676965.808607, 194594.254183 676996.150415, 194592.698562 677034.789211, 194586.939307 677058.966827, 194546.499225 677180.704164)",34.94036239950942,32.1854549006338
road_00254,70237293,residential,השילוני,0,,B,B,,,"LINESTRING (194416.523009 677635.462372, 194428.020983 677697.844417)",34.93889919950994,32.19195760063303
road_00255,70237296,residential,ישעיהו,0,,B,B,,,"LINESTRING (194440.025851 677155.216898, 194423.231505 677209.085617, 194392.300526 677308.3333, 194373.928024 677364.457138, 194364.588364 677381.934745, 194355.391027 677395.941067, 194342.676895 677410.177891, 194326.489645 677423.236782, 194308.210809 677433.229158, 194295.976216 677435.455173, 194281.566693 677435.246961, 194256.381284 677432.282128, 194249.208453 677429.849222, 194232.843091 677424.312, 194210.709885 677412.53481, 194161.83165 677388.825735)",34.938355099509806,32.189670200633245
road_00256,70237297,residential,יונה,0,,B,B,,,"LINESTRING (194223.414854 677038.318052, 194223.023804 677044.129799, 194220.549522 677080.619635, 194218.742054 677100.839861, 194222.30686 677116.067644, 194226.402365 677128.55506, 194237.186405 677142.046061, 194255.688435 677157.181287, 194279.090078 677170.685352, 194301.393882 677178.824989, 194325.724453 677182.878804, 194352.66378 677185.562241)",34.93720619950969,32.187641000633384
road_00257,70237298,residential,תרי עשר,0,,B,B,,,"LINESTRING (194392.300526 677308.3333, 194464.069667 677337.609317, 194535.196471 677366.610185)",34.93941119950974,32.18927270063333
road_00258,70237567,residential,בקעת רימון,0,,B,B,,,"LINESTRING (193434.076512 676557.041732, 193429.529586 676556.543288, 193430.75522 676541.691619, 193425.924852 676533.642115, 193427.124684 676501.380369, 193436.929183 676499.980154, 193504.045173 676491.269538, 193509.316935 676491.233877, 193513.639871 676492.64225)",34.92854179950953,32.18169590063346
road_00259,70237570,residential,התוכנה,0,,B,B,,,"LINESTRING (193175.22145 675862.146066, 193184.545329 676035.54682, 193184.629663 676042.621549, 193184.097879 676059.434242, 193182.004425 676070.473474, 193180.327325 676082.043914, 193181.783891 676090.933729, 193184.613258 676094.57477, 193189.974137 676099.739578, 193193.472699 676099.575273, 193204.487013 676099.047758, 193286.561346 676089.531889, 193320.836364 676086.60471, 193325.998018 676087.678165, 193330.286225 676090.173297, 193334.89074 676094.641504, 193340.832621 676098.38547, 193346.639694 676101.054128, 193356.620093 676101.893417, 193364.700406 676101.018766)",34.925878399509315,32.17750190063373
road_00260,70237571,service,,0,,B,B,,,"LINESTRING (193431.961376 675846.247848, 193408.043638 675783.954337)",34.92825499950908,32.17523830063411
road_00261,70237572,residential,עמק חורון,0,,B,B,,,"LINESTRING (193743.698415 676121.276251, 193791.863806 676121.365024, 193820.664308 676120.416178)",34.93231549950917,32.17828980063405
road_00262,70237574,pedestrian,בקעת באר שבע,0,,B,B,,,"LINESTRING (193590.81799 676350.458326, 193592.303737 676274.748168, 193592.721389 676253.599888, 193592.83785 676247.48941)",34.930195399509344,32.17966840063377
road_00263,70237575,pedestrian,בקעת יבנאל,0,,B,B,,,"LINESTRING (193588.544191 676568.357017, 193591.294045 676511.31793, 193588.662522 676503.795029, 193589.314312 676463.517169, 193583.824498 676455.713236, 193586.215888 676402.334527, 193587.215826 676350.644936)",34.93015859950947,32.18137060063361
road_00264,70237576,residential,בקעת זוהר,0,,B,B,,,"LINESTRING (193430.316802 676315.604862, 193512.184695 676314.4859)",34.9293447995094,32.1800249006337
road_00265,70237577,residential,האילנות,0,,B,B,,,"LINESTRING (194262.270523 676500.092978, 194254.77366 676469.982089, 194252.755905 676451.179724)",34.93721459950923,32.18144400063403
road_00266,70237578,residential,עמק יזרעאל,0,,B,B,,,"LINESTRING (193846.636497 676411.365939, 193864.154774 676473.188714, 193888.76093 676537.211511, 193908.232872 676596.068613, 193921.337581 676635.679731, 193912.81286 676665.908336)",34.9333317995094,32.18204200063374
road_00267,70237579,service,,0,,B,B,,,"LINESTRING (193760.027516 676513.783513, 193743.606446 676464.622064, 193735.276201 676467.249153, 193740.883751 676484.345668)",34.93179459950942,32.181384100633686
road_00268,70237580,residential,עמק זבולון,0,,B,B,,,"LINESTRING (193729.954072 676525.536709, 193760.027516 676513.783513, 193766.708771 676508.00018, 193769.822557 676504.909482, 193855.740132 676476.015523, 193864.154774 676473.188714, 193949.281386 676444.574778)",34.93298329950938,32.18148940063375
road_00269,70237581,residential,עמק חורון,0,,B,B,both,,"LINESTRING (193791.863806 676121.365024, 193793.436225 676168.823056, 193793.855065 676181.541372, 193793.997308 676185.577501, 193795.621073 676234.698796)",34.932334999509216,32.178832500634
road_00270,70237582,residential,התאנה,0,,F,F,,,"LINESTRING (194460.128762 676449.945961, 194447.358827 676472.699306)",34.93939259950913,32.18126790063416
road_00271,70237583,residential,הזית,0,,B,B,,,"LINESTRING (194512.151568 676351.012711, 194417.779938 676303.040158)",34.93894739950907,32.17994220063428
road_00272,71375383,residential,אברהם קרן,0,,B,B,,,"LINESTRING (191812.314882 675199.235519, 191825.65328 675251.740117, 191839.39784 675304.509772, 191859.175703 675380.461779, 191869.231361 675419.091613, 191880.525969 675462.464296, 191884.576792 675478.033706, 191891.363031 675504.097222)",34.91184439950938,32.17156280063352
road_00273,72701340,track,,0,,B,B,,,"MULTILINESTRING ((194666.257957 676962.562277, 194694.007516 676953.135174, 194711.126804 676946.661634, 194723.833668 676939.703169), (194764.40164 676893.748343, 194878.362099 676758.192434, 194884.286262 676751.125319, 194888.194362 676744.916962, 194888.395965 676734.703272, 194883.411146 676705.195752, 194880.050689 676696.110704, 194871.000908 676689.833933, 194839.020204 676681.516912, 194816.33807 676673.188494, 194797.416213 676659.938449, 194784.885456 676645.508525, 194776.027957 676629.15124, 194769.40878 676610.260167, 194769.640357 676589.156757, 194770.933986 676582.067577, 194774.836418 676573.530449, 194787.358293 676560.991322, 194810.124688 676537.892534, 194824.248879 676520.486108))",34.94316389950917,32.18328890063419
road_00274,76345213,footway,,0,,B,B,,,"LINESTRING (192624.348896 675287.689131, 192597.93707 675179.893826)",34.919959599509035,32.17074470063411
road_00275,76345253,footway,משעול הלפיד,0,,B,B,,,"LINESTRING (192740.781606 675257.030755, 192812.507436 675237.280806, 192828.576209 675232.381552, 192876.039934 675222.221391, 192906.463692 675220.677993)",34.92212639950894,32.17025080063428
road_00276,81466464,service,,0,,B,B,,,"LINESTRING (194097.449727 676546.235656, 194065.5692 676552.015261, 194053.98078 676549.061256, 194037.762799 676538.966289)",34.935206199509366,32.182179500633815
road_00277,82017642,trunk,,0,,F,F,,,"LINESTRING (193251.728606 674626.537487, 193261.154968 674653.684071)",34.9267284995084,32.165042400635116
road_00278,82017705,trunk,,0,,F,F,,,"LINESTRING (193441.761586 675261.486655, 193440.470448 675247.17375)",34.92862669950872,32.170527600634635
road_00279,82018062,trunk,,0,,F,F,,,"LINESTRING (193472.176425 675263.84839, 193485.418706 675271.122313, 193506.820142 675285.971525, 193530.416344 675310.795495, 193648.958597 675441.180163, 193675.988212 675470.087674, 193697.75917 675493.308728, 193731.909689 675529.739005, 193748.633031 675544.966526, 193763.998389 675556.56024, 193862.724742 675629.388945, 193914.964265 675665.896221, 193952.415225 675691.362757, 193990.628058 675716.073451, 194049.819809 675752.422781)",34.9318725995088,32.17309100063458
road_00280,84530814,tertiary,,0,,B,B,,,"LINESTRING (193656.213386 677029.498193, 193661.008631 677031.315729, 193664.010399 677032.461381, 193666.668741 677035.770314)",34.93090349950981,32.18649250063313
road_00281,84530873,residential,דוד רמז,0,,B,B,,,"LINESTRING (190857.221695 677481.428613, 190869.386353 677491.463412, 190869.482832 677525.695828, 190855.322031 677526.744875)",34.90128729951112,32.19057450063089
road_00282,84531012,residential,עיט,0,,B,B,,,"LINESTRING (193297.160629 676890.105114, 193298.066584 676894.006201, 193298.591119 676896.27815, 193312.553377 676956.82285, 193314.727761 676966.232039, 193322.118963 676998.30535, 193323.72114 677005.243108)",34.92721049950989,32.18581270063295
road_00283,84532030,residential,חגי,0,,B,B,,,"LINESTRING (194118.166883 677085.288362, 194086.338418 677073.502394, 193943.904107 677002.733033)",34.9354125995097,32.18688260063337
road_00284,84532031,residential,מיכל,0,,B,B,,,"LINESTRING (194058.607356 677187.902128, 194112.491794 677169.115217)",34.93568739950975,32.18774540063328
road_00285,84532032,residential,דוד המלך,0,,B,B,,,"LINESTRING (194468.819147 676777.290461, 194522.221752 676730.096274, 194555.457674 676688.795886, 194597.063265 676637.727647, 194641.712485 676581.606533)",34.940397199509285,32.18342390063402
road_00286,84532033,residential,שלמה המלך,0,,B,B,,,"LINESTRING (194560.981578 676514.8252, 194570.847377 676522.984868)",34.94046029950916,32.18185520063418
road_00287,84532034,path,,0,,B,B,,,"LINESTRING (194256.381284 677432.282128, 194253.36665 677467.631123, 194243.490964 677500.75714, 194241.413138 677507.038833, 194237.742799 677521.364207, 194236.743511 677525.270116, 194233.378717 677537.321432, 194230.683257 677553.085991, 194224.279196 677571.565558, 194211.129429 677603.834796)",34.937006299509925,32.190924700633026
road_00288,84532035,residential,חבקוק,0,,B,B,,,"LINESTRING (193886.711307 676827.855142, 193767.079475 676822.024986)",34.93330229950959,32.18466290063346
road_00289,87969084,residential,שאול המלך,0,,B,B,,,"LINESTRING (194714.706796 676887.192303, 194612.218954 676803.552522, 194522.221752 676730.096274, 194469.275517 676686.889713, 194458.702824 676678.864956, 194413.134782 676641.063158, 194403.891309 676632.868838)",34.94004369950931,32.18379560063395
road_00290,88007959,residential,אלישע,0,,B,B,,,"LINESTRING (194557.518465 677639.806035, 194463.393691 677614.376957, 194453.409358 677607.47077)",34.939396799509915,32.19176850063307
road_00291,88007961,residential,גד הנביא,0,,B,B,,,"LINESTRING (194557.518465 677639.806035, 194574.04921 677574.593829, 194595.763647 677488.93143, 194621.428874 677345.184932, 194636.348313 677253.1297, 194636.874871 677240.94131)",34.94080379950977,32.19064020063327
road_00292,88007966,residential,בת יפתח,0,,B,B,,,"LINESTRING (194323.252036 677505.704616, 194317.297786 677469.85667, 194308.210809 677433.229158)",34.93785129950987,32.19046200063309
road_00293,88007968,residential,בת יפתח,0,,B,B,,,"LINESTRING (194243.490964 677500.75714, 194262.786651 677505.388868, 194274.992958 677506.99977, 194293.14196 677505.557482, 194306.169484 677507.499063, 194323.252036 677505.704616, 194342.561096 677500.522458, 194351.087214 677497.307642, 194377.773113 677477.92412, 194392.567691 677477.521607)",34.937913499509904,32.19078540063311
road_00294,95940715,service,,0,,B,B,,,"LINESTRING (192069.281863 675684.89179, 192144.949291 675662.919672, 192194.4629 675686.550849, 192218.949454 675680.28621)",34.91486619950945,32.17411690063343
road_00295,97376411,residential,הנגב,0,,B,B,,,"LINESTRING (192408.694296 676543.422043, 192438.105595 676644.83273)",34.91794669951,32.182978600632694
road_00296,105917768,residential,טרומן,0,,B,B,,,"LINESTRING (190843.826437 675556.742563, 190807.371522 675566.359992, 190795.270764 675569.765294, 190685.874177 675600.52595)",34.90055889950987,32.173243300632656
road_00297,105917769,residential,השפלה,0,,B,B,,,"LINESTRING (192187.883663 676747.989246, 192177.540432 676706.709483, 192155.511945 676612.665112)",34.91518199951013,32.183530300632455
road_00298,105917770,residential,גורדון,0,,B,B,,,"LINESTRING (190608.807699 675710.08499, 190610.266516 675715.636573)",34.898577699510035,32.1745039006324
road_00299,105917771,residential,טרומפלדור,0,,F,F,,,"LINESTRING (191216.33853 675287.217004, 191233.537341 675346.419127)",34.90503159950955,32.170706000633196
road_00300,105917772,residential,פיירברג,0,,F,F,,,"LINESTRING (190786.914894 676431.337474, 190738.571378 676444.504097, 190672.238205 676462.5569)",34.899931499510465,32.1811300006318
road_00301,105917773,residential,הרב עמיאל,0,,B,B,,,"LINESTRING (191910.063447 676510.697225, 191926.995974 676533.073793, 191936.972986 676550.157487, 191941.288079 676562.510331, 191944.933241 676581.695991, 191946.109407 676601.575881, 191944.11421 676620.488514)",34.912680999510115,32.182224200632454
road_00302,105917778,residential,"הגר""א",0,,F,F,,,"LINESTRING (191375.646795 675509.425365, 191337.834483 675376.558628, 191322.518817 675322.751585, 191305.269485 675262.1633)",34.906317099509565,32.171514700633196
road_00303,105917779,residential,נורית,0,,B,B,,,"LINESTRING (190754.856301 676620.389636, 190806.756861 676674.89099, 190863.140311 676734.115102, 190940.776825 676711.784552)",34.90064759951059,32.18320930063162
road_00304,105917780,residential,הרב קוק,0,,B,B,,,"LINESTRING (191744.918453 676676.033444, 191751.74109 676674.129633, 191754.096995 676673.480022, 191809.205914 676658.104121, 191880.156112 676638.327366, 191944.11421 676620.488514, 192021.143177 676599.0107)",34.912030599510196,32.18290640063236
road_00305,105917783,residential,בר אילן,0,,B,B,,,"LINESTRING (192033.871483 676646.660194, 192059.085088 676732.42311, 192060.003395 676747.70166, 192052.527719 676759.221434)",34.91392519951019,32.18375930063236
road_00306,112568560,residential,הכלנית,0,,B,B,,,"LINESTRING (190224.602715 675723.781706, 190203.311202 675647.005399)",34.89428029951014,32.173924600632205
road_00307,112568561,residential,איריס,0,,B,B,,,"LINESTRING (190339.493758 675610.296413, 190293.917258 675622.581114)",34.89524169951009,32.17370670063228
road_00308,112657876,residential,הכלנית,0,,F,F,,,"LINESTRING (190224.602715 675723.781706, 190248.698981 675808.467741, 190265.864373 675867.490984)",34.894756599510224,32.175381800632074
road_00309,112977886,residential,יאיר רוזנבלום,0,,B,B,,,"LINESTRING (190130.86586 677330.580992, 190095.046402 677293.413434, 190059.283423 677256.301284, 190047.70605 677244.29185, 190043.787252 677239.224307, 190036.059198 677231.096074, 190027.016351 677221.596587, 190008.505864 677202.465797, 189991.612796 677185.027008, 189974.577734 677167.422319)",34.89258139951124,32.188324400630606
road_00310,112977888,tertiary,,0,,B,B,,,"LINESTRING (190129.240446 676960.790521, 190130.756623 676960.054244, 190132.68716 676959.117162, 190136.466823 676958.440879, 190140.287253 676958.817965, 190143.37429 676959.951243, 190146.09556 676961.784205, 190148.318685 676964.195251, 190149.911287 676967.06278, 190150.778581 676970.220727, 190150.678838 676974.867434, 190149.050511 676979.219146, 190146.061937 676982.787447, 190143.153433 676984.692122, 190139.856041 676985.82167, 190136.377006 676986.097867, 190132.262963 676985.27806, 190128.579286 676983.270455, 190125.65655 676980.251524, 190123.778532 676976.519858, 190123.432882 676974.391711, 190123.106446 676972.38549, 190123.707461 676968.247441, 190124.793915 676965.660492, 190126.380982 676963.349328, 190129.240446 676960.790521)",34.89353139951101,32.18574900063093
road_00311,112977889,tertiary,משה וילנסקי,0,,F,F,,,"LINESTRING (190136.377006 676986.097867, 190128.058169 676988.949686, 190124.018347 676990.96853, 190118.155516 676995.232688, 190087.258113 677023.411302, 189973.868931 677127.957524, 189969.028703 677133.593872, 189966.193701 677138.048927, 189963.685164 677144.510198)",34.893007599511094,32.18633360063084
road_00312,112977890,living_street,מזור,0,,B,B,,,"LINESTRING (190272.468882 676924.215269, 190345.391063 676857.137269, 190358.388208 676857.776431)",34.89574989951088,32.18484090063115
road_00313,112977891,living_street,דודאים,0,,B,B,,,"LINESTRING (190546.514326 677223.662424, 190564.203813 677206.545586, 190584.679294 677187.524579)",34.89805959951103,32.18799740063095
road_00314,112977893,footway,מזור,0,,B,B,,,"LINESTRING (190358.388208 676857.776431, 190389.851115 676891.586235)",34.89588769951088,32.18484700063117
road_00315,112977896,living_street,,0,,B,B,,,"LINESTRING (190075.130257 676906.066113, 190113.498042 676868.47322)",34.89329059951099,32.184937100631
road_00316,112977901,residential,יאיר רוזנבלום,0,,B,B,,,"LINESTRING (190145.618984 677348.425411, 190204.600775 677409.335077, 190223.031241 677427.135736, 190230.252437 677432.914637, 190239.347786 677437.856446, 190249.029199 677440.013159, 190266.279498 677440.983719, 190277.384554 677439.765211, 190286.58769 677436.289965, 190301.045024 677426.833574, 190327.678519 677404.922203, 190349.984515 677386.5719, 190351.282799 677385.503601, 190354.001672 677383.266849, 190394.248632 677350.149674, 190451.307918 677303.189477, 190530.636787 677237.924176)",34.895796299511225,32.189605700630665
road_00317,112977902,residential,סשה ארגוב,0,,B,B,,,"LINESTRING (190323.901094 677166.62381, 190376.908058 677222.339649, 190387.861244 677233.852225, 190451.307918 677303.189477, 190488.32906 677345.555734, 190501.782622 677360.953639)",34.896188799511116,32.18823910063082
road_00318,113263450,cycleway,יוסי בנאי,0,,B,B,,,"LINESTRING (190204.600775 677409.335077, 190297.162726 677322.860271)",34.89424009951129,32.18981680063055
road_00319,114540582,residential,אנה פרנק,0,,B,B,,,"LINESTRING (191048.355399 675857.075557, 191037.883924 675815.752956)",34.90323369950997,32.175840600632554
road_00320,114540583,residential,אנה פרנק,0,,B,B,,,"LINESTRING (191055.779966 675810.601794, 191037.883924 675815.752956, 190971.681141 675834.867945)",34.90312389950994,32.175467700632595
road_00321,114540584,residential,אנה פרנק,0,,F,F,,,"LINESTRING (191037.883924 675815.752956, 191016.697012 675737.011901, 190984.38683 675616.850383)",34.90290159950991,32.17475710063265
road_00322,114547763,residential,חרצית,0,,B,B,,,"LINESTRING (190902.343026 676800.928585, 190996.918817 676772.695652)",34.902661099510595,32.18409610063165
road_00323,114547764,residential,י. כהן,0,,B,B,,,"LINESTRING (191071.360226 676639.803743, 191069.444132 676669.55058, 191071.922751 676689.18278, 191077.762073 676710.025402, 191087.699918 676736.257052, 191107.380446 676772.929776)",34.90352019951052,32.183533000631755
road_00324,115830485,residential,חיה ושלמה אנגל,0,,F,F,,,"LINESTRING (190180.013567 678277.189581, 190188.69437 678275.966876, 190194.167467 678274.132431, 190198.80025 678271.912287, 190203.238213 678267.530289)",34.894102999511865,32.197615000629725
road_00325,115830486,residential,זטלר,0,,B,B,left,yes,"LINESTRING (189674.491298 678315.178855, 189652.586582 678058.292339, 189652.341006 678054.944083, 189645.945262 677967.456998, 189645.92277 677959.805428, 189647.922911 677953.755866, 189652.359411 677948.90788, 189659.258234 677947.678872, 189740.768304 677941.584548)",34.88836609951193,32.19565440062959
road_00326,115830487,residential,סקיבין,0,,F,F,,,"LINESTRING (189786.683441 677939.25443, 189780.42762 677941.102472, 189774.984391 677943.513695, 189769.057325 677948.144203)",34.8896676995118,32.19462260062976
road_00327,115830489,unclassified,ספיר,0,,F,F,,,"LINESTRING (189803.924801 678559.78507, 189798.196746 678545.296974, 189782.0056 678338.561555, 189781.183518 678331.522235, 189778.94176 678325.895416, 189776.571983 678321.632959)",34.889729899512076,32.19818520062938
road_00328,115830490,residential,,0,,B,B,,,"LINESTRING (189768.628755 678307.439689, 189674.491298 678315.178855, 189669.456971 678315.37989)",34.88859039951209,32.19797150062935
road_00329,115830492,tertiary,ספיר,0,,F,F,,,"LINESTRING (189745.23332 677930.360158, 189748.628962 677924.262171, 189750.634531 677920.042353, 189752.634136 677910.566212, 189754.417461 677898.07441, 189756.195487 677886.990967, 189759.18877 677872.288847, 189761.799561 677862.212096, 189765.404014 677850.12527, 189769.20528 677840.843467, 189775.03687 677826.121956, 189781.058853 677812.009804, 189786.505042 677800.915637, 189792.132805 677790.641551, 189799.593391 677778.321674, 189808.45023 677766.219508, 189848.571398 677713.749619, 189858.65538 677702.043132, 189862.683669 677696.187305, 189865.137105 677690.302807)",34.8897942995117,32.1933370006299
road_00330,115830493,residential,דובה ויצחק שיינפיין,0,,B,B,,,"LINESTRING (189924.108259 678298.114218, 189915.135875 678160.388719, 189911.571919 678105.484757, 189910.900679 678095.173639, 189906.359195 678025.17996, 189904.937606 678003.304864, 189902.716066 677969.023147, 189900.17897 677930.00721)",34.891111199511855,32.196086800629686
road_00331,115830494,residential,שלמה וחיה אנגל,0,,F,F,,,"LINESTRING (190047.713179 677724.858375, 190042.830042 677715.612954, 190039.164349 677709.968033, 190033.024405 677703.066109)",34.89251519951154,32.19257450063015
road_00332,115830497,residential,לאה ודוד לונברג,0,,B,B,,,"LINESTRING (190188.662002 678003.380305, 190195.450964 678081.717864, 190200.240349 678137.017589, 190202.961684 678168.403614, 190207.389893 678219.468268, 190209.457619 678243.293263)",34.89417159951178,32.196378700629836
road_00333,115830504,residential,שלמה וחיה אנגל,0,,B,B,,,"LINESTRING (190188.662002 678003.380305, 190239.222865 678000.074057, 190309.829088 677996.144875, 190322.321195 677995.45471, 190326.054419 677995.155664, 190329.514254 677994.879583, 190339.497818 677994.085751)",34.894589199511664,32.19514480063
road_00334,118941450,residential,משעול גיל,0,,B,B,,,"LINESTRING (189841.328759 676217.822997, 189830.091427 676235.554317, 189787.482378 676274.557885, 189760.467775 676302.227082)",34.88985199951071,32.17957280063135
road_00335,118941452,residential,קיבוץ גלויות,0,,B,B,,yes,"LINESTRING (189959.096012 676412.60726, 190008.436166 676466.912404, 190056.952744 676520.333029, 190106.622987 676575.003639, 190146.529115 676618.934982, 190151.477132 676624.376625, 190198.137851 676675.740673)",34.89270169951077,32.18179620063129
road_00336,118941454,residential,סירני,0,,F,F,,,"LINESTRING (189946.106988 676411.724616, 189936.317596 676418.195974, 189926.159032 676420.9535, 189914.950452 676419.378178, 189905.633506 676416.433375, 189895.209451 676405.751475, 189869.294671 676373.94527, 189814.778771 676307.790365)",34.89071639951072,32.1804712006313
road_00337,118941457,residential,,0,,B,B,,,"LINESTRING (189839.140663 676198.412024, 189842.553524 676197.99176, 189845.629971 676198.637051, 189848.360153 676200.203765, 189850.451252 676202.537505, 189851.713966 676205.405949, 189852.024852 676208.521135, 189851.335881 676211.583791, 189849.730994 676214.272083, 189847.360347 676216.33052, 189844.459134 676217.558808, 189841.328759 676217.822997, 189837.987697 676216.989962, 189835.13391 676215.079843, 189833.107565 676212.313434, 189832.13598 676209.022749, 189832.352355 676205.606614, 189833.710703 676202.464378, 189836.070625 676199.962397, 189839.140663 676198.412024)",34.890438299510635,32.178883800631475
road_00338,118941458,residential,משעול גיל,0,,B,B,,,"LINESTRING (190034.079413 676040.997981, 190007.721404 676041.872863, 190000.543069 676044.743644, 189995.933737 676048.882241, 189944.983943 676096.902757, 189892.699059 676146.180517, 189868.630681 676168.861737, 189847.186505 676189.073535, 189842.553524 676197.99176)",34.89152749951053,32.17797490063162
road_00339,120394074,footway,,0,,B,B,,,"LINESTRING (190866.361546 677150.974883, 190879.825166 677180.101808)",34.90126539951089,32.18750400063121
road_00340,122738714,tertiary,דוד רמז,0,,B,B,,,"LINESTRING (190869.706637 677471.268883, 190857.221695 677481.428613, 190808.280299 677524.892645, 190786.587635 677540.223913, 190769.179222 677546.616218, 190747.955326 677554.283533, 190738.881996 677556.992831, 190726.93496 677560.553063, 190708.134401 677564.82027, 190691.896849 677568.403795, 190654.50779 677571.892136, 190597.570559 677572.053976, 190527.873583 677571.831125, 190489.194651 677569.402063, 190477.024861 677567.573822)",34.89940279951124,32.191263800630715
road_00341,122738715,tertiary,דוד רמז,0,,B,B,,,"LINESTRING (190866.872185 677465.987273, 190866.797612 677462.949014, 190867.666405 677460.041167, 190869.39451 677457.552292, 190871.812781 677455.693563, 190874.676634 677454.676366, 190878.042991 677454.622524, 190881.223937 677455.700314, 190883.851391 677457.79988, 190885.613383 677460.644869, 190886.301583 677463.925364)",34.90134449951109,32.190242900630935
road_00342,122738716,residential,,0,,B,B,,,"LINESTRING (190475.948221 677603.30666, 190466.324418 677594.839749, 190460.356083 677588.513723, 190458.623895 677579.636137)",34.89700989951133,32.191496400630534
road_00343,122738717,residential,בורוכוב,0,,B,B,,,"LINESTRING (191089.274768 677279.217838, 191068.417792 677266.645472, 191046.301738 677259.089039, 191029.715317 677256.174663, 191011.010688 677254.541522, 190993.166526 677253.7377, 190986.861175 677254.964128, 190968.953653 677258.463174, 190933.713669 677272.091148, 190900.622863 677292.067365, 190804.579797 677359.905317, 190734.359136 677405.037772)",34.90162449951097,32.18877720063112
road_00344,122738718,residential,בלבן,0,,B,B,,,"LINESTRING (191106.266753 677447.505928, 191156.340852 677512.005641, 191194.598086 677559.372279, 191204.410975 677571.609711, 191214.207371 677581.318838)",34.90432969951103,32.19076700063105
road_00345,122738719,residential,ברדיצ'ב,0,,B,B,,,"LINESTRING (190210.548952 677761.7807, 190236.484458 677766.363459, 190262.836931 677768.394541, 190302.360202 677769.556125, 190335.504157 677769.039511, 190341.480827 677768.423529, 190365.246163 677765.99331, 190415.36389 677755.691867, 190483.306945 677739.850526)",34.89568069951147,32.19305850063029
road_00346,122738720,residential,גבעולים,0,,B,B,,,"LINESTRING (191168.177861 677201.782709, 191138.918344 677165.513626, 191124.451238 677154.997009, 191116.777527 677149.152205)",34.90415519951079,32.187642000631385
road_00347,122738721,residential,גולדשטיין,0,,B,B,,,"LINESTRING (190178.946557 677855.332654, 190200.64465 677862.045613, 190235.499008 677866.17016, 190279.70138 677868.160959, 190321.759277 677865.500597, 190339.23847 677864.341468, 190368.493041 677862.405604, 190433.062436 677854.180863, 190471.711301 677846.463063, 190495.920139 677840.893605, 190486.119384 677803.406442)",34.89565399951155,32.193923400630204
road_00348,122738722,path,האחדות,0,,B,B,,,"LINESTRING (190804.579797 677359.905317, 190736.606674 677262.944146)",34.899886099511015,32.18851040063102
road_00349,122738723,residential,האחדות,0,,B,B,,,"LINESTRING (190874.676634 677454.676366, 190850.072704 677424.205778, 190827.825174 677396.7338, 190804.579797 677359.905317)",34.90084939951106,32.18971920063094
road_00350,122738724,residential,ויתקין,0,,B,B,,,"LINESTRING (190850.494388 677597.131232, 190838.107605 677575.176077, 190832.356295 677565.478073, 190808.280299 677524.892645, 190804.802939 677519.025134, 190734.359136 677405.037772, 190710.041242 677372.537368, 190698.120208 677365.385288, 190685.791571 677364.144979, 190670.934859 677369.26603, 190589.917648 677421.094811, 190582.713754 677431.262032, 190582.493338 677433.33636, 190581.473226 677442.68755, 190599.820028 677540.720275, 190597.570559 677572.053976, 190595.045489 677619.201819, 190593.129258 677654.959211)",34.899857999511106,32.18979170063089
road_00351,122738725,residential,טהון,0,,B,B,,,"LINESTRING (191138.056422 677228.347996, 191110.740789 677202.663846, 191085.830171 677187.252822, 191054.56972 677177.437553, 191033.911846 677175.432802, 191010.793641 677177.138817, 191004.018212 677185.618954, 191004.475787 677197.461043)",34.90359159951084,32.18783670063131
road_00352,122738726,residential,יאנוש קורצ'אק,0,,B,B,,,"LINESTRING (190217.184362 677705.095159, 190265.636562 677705.798382, 190306.428208 677705.259668, 190342.310462 677702.661507, 190342.970414 677702.615255, 190373.55186 677699.566671, 190412.201272 677691.84865, 190473.778454 677675.592999)",34.89569849951145,32.19246510063035
road_00353,122738727,residential,ישראל ישעיהו,0,,B,B,,,"LINESTRING (190207.93213 677590.081277, 190217.851363 677642.072654, 190218.298878 677650.111118, 190219.687386 677686.901465, 190217.184362 677705.095159, 190213.328345 677738.063726, 190210.548952 677761.7807, 190198.368366 677811.717762, 190178.946557 677855.332654, 190158.664055 677894.725042)",34.89432259951152,32.192781400630246
road_00354,122738728,residential,כנפי נשרים,0,,B,B,,,"LINESTRING (191156.340852 677512.005641, 191203.303138 677478.573547, 191259.265204 677432.740993, 191299.241837 677403.176762, 191340.513704 677367.920291, 191350.317766 677359.953183)",34.90542349951094,32.190054800631195
road_00355,122738729,residential,מרבד הקסמים,0,,B,B,,,"LINESTRING (191244.749082 677326.434969, 191182.915773 677373.78101)",34.90461559951092,32.1895212006312
road_00356,122738730,footway,מרבד הקסמים,0,,B,B,,,"LINESTRING (191182.915773 677373.78101, 191158.847998 677386.501015)",34.90461559951092,32.1895212006312
road_00357,122738731,residential,משעול האר''י הקדוש,0,,B,B,,,"LINESTRING (190990.959191 677508.886572, 191001.243236 677530.980879)",34.90257599951109,32.19073470063096
road_00358,122738732,residential,משעול האר''י הקדוש,0,,B,B,,,"LINESTRING (190962.386853 677458.6768, 190981.935319 677492.300121)",34.902480799511075,32.190584900630945
road_00359,122738733,footway,משעול האר''י הקדוש,0,,B,B,,,"LINESTRING (190981.935319 677492.300121, 190990.959191 677508.886572)",34.902480799511075,32.190584900630945
road_00360,122738734,residential,פרוג,0,,B,B,,,"LINESTRING (190218.298878 677650.111118, 190234.444717 677647.525134, 190250.583593 677645.793073, 190269.698606 677642.777202, 190302.819867 677634.220798, 190320.484231 677628.447954, 190336.792001 677623.122608, 190363.95473 677611.633757, 190391.113833 677598.858629, 190419.954687 677580.60064, 190448.630421 677560.624364)",34.89563539951139,32.19174810063042
road_00361,122738735,residential,צייטלין,0,,B,B,,,"LINESTRING (190198.368366 677811.717762, 190222.185736 677817.570776, 190245.575105 677822.160897, 190281.281879 677827.54733, 190319.957465 677829.132812, 190340.134631 677828.331882, 190354.371801 677827.769821, 190394.720419 677820.87855, 190443.995329 677812.708809, 190486.119384 677803.406442, 190502.177422 677799.856363)",34.89581559951152,32.19359400063024
